source_record_id,name,name_kana,name_ko,translation_source,translation_status,municipality,address,lat,lng,disposition,classification,reason,parent_record_id,parent_name
0000007795,貴了庵,キリョウアン,키료안,official_kana_transliteration,auto_needs_review,京都市北区,京都府京都市北区平野鳥居前町5,35.033360,135.733745,excluded_non_primary,commercial_business,commercial operation confirmed by description,,
0000003242,泉仙 大慈院店,イヅセン ダイジインテン,이즈센 다이지인텐,official_kana_transliteration,auto_needs_review,京都市北区,京都府京都市北区紫野大徳寺町4,35.041803,135.744823,excluded_non_primary,retail_or_rental_service,name matched /レンタル|貸衣装|着付け|変身|商店|ショップ|ショッピング|土産|専門店|工房|スタジオ|手創り体験|手作り体験|京あるき|サイクル|店($|[（(])/,,
0000004058,くるっとパーク紫明通,クルットパークシメイドオリ,쿠루토파쿠시메이도오리,official_kana_transliteration,auto_needs_review,京都市北区,京都府京都市北区紫野宮東町44197,35.038461,135.753776,excluded_non_primary,parking,name matched /駐車場|パーキング|くるっとパーク/,,
0000003468,鹿苑寺（金閣寺）,ロクオンジ（キンカクジ）,금각사(킨카쿠지),curated_standard_translation,reviewed,京都市北区,京都府京都市北区金閣寺町1,35.039381,135.729244,primary,religious_site,name matched /寺|神社|神宮|天満宮|大社|地蔵|不動|観音|霊廟|墓所/,,
0000009493,源光庵,ゲンコウアン,겐코안,official_kana_transliteration,auto_needs_review,京都市北区,京都府京都市北区鷹峯北鷹峯町47,35.054792,135.731709,primary,religious_site,religious suffix confirmed by description,,
0000000084,建勲神社,ケンクンジンジャ,켄쿤신사,official_kana_transliteration,auto_needs_review,京都市北区,京都府京都市北区紫野北舟岡町49,35.038697,135.743200,primary,religious_site,name matched /寺|神社|神宮|天満宮|大社|地蔵|不動|観音|霊廟|墓所/,,
0000007556,大谷大学博物館,オオタニダイガクハクブツカン,오타니대학박물관,official_kana_transliteration,auto_needs_review,京都市北区,京都府京都市北区小山上総町 大谷大学内 響流館1階,35.043195,135.758911,primary,museum_or_gallery,name matched /博物館|美術館|資料館|記念館|ミュージアム/,,
0000000012,ガラシャ/グラススタジオ北やま,ガラシャ/グラススタジオキタヤマ,가라샤 구라스스타지오키타야마,official_kana_transliteration,auto_needs_review,京都市北区,京都府京都市北区小山西元町10 北山通新町角,35.049785,135.754437,excluded_non_primary,retail_or_rental_service,name matched /レンタル|貸衣装|着付け|変身|商店|ショップ|ショッピング|土産|専門店|工房|スタジオ|手創り体験|手作り体験|京あるき|サイクル|店($|[（(])/,,
0000003749,島津アリーナ京都（京都府立体育館）,シマヅアリーナキョウト（キョウトフリツタイイクカン）,시마즈아리나교토(교토부립타이이쿠칸),official_kana_transliteration,auto_needs_review,京都市北区,京都府京都市北区大将軍鷹司町,35.022866,135.728562,excluded_non_primary,administrative_or_sports_facility,name matched /体育館|運動場|競技場|武道センター|運動施設|府民ホール|運動公園|文化芸術会館|こども文化会館|国際交流会館|国際センター|コンベンション|会議場/,,
0000000276,平野神社,ヒラノジンジャ,히라노신사,official_kana_transliteration,auto_needs_review,京都市北区,京都府京都市北区平野宮本町,35.032626,135.731986,primary,religious_site,name matched /寺|神社|神宮|天満宮|大社|地蔵|不動|観音|霊廟|墓所/,,
0000009498,等持院,トウジイン,토지인,official_kana_transliteration,auto_needs_review,京都市北区,京都府京都市北区等持院北町63,35.031556,135.723445,primary,heritage_or_landmark,historic-site suffix confirmed by description,,
0000000678,御すぐき處 京都なり田,オンスグキドコロ キョウトナリタ,온스구키도코로 교토나리타,official_kana_transliteration,auto_needs_review,京都市北区,京都府京都市北区上賀茂山本町（上賀茂神社東）,35.058030,135.753910,excluded_non_primary,food_or_beverage,name matched /料理|食堂|レストラン|カフェ|喫茶|茶屋|料亭|割烹|菓子|菓寮|餅|豆腐|とうふ|納豆|漬物|パン|珈琲|コーヒー|ワイン|ビール|酒造|醤油|グリル|洋食|そば|うどん|寿司|鮨|焼肉|ラーメン|スイーツ|甘味|御すぐき|本舗|茶房|食文化|食事処/,,
0000007742,紫野 Anri,ムラサキノ アンリ,무라사키노 안리,official_kana_transliteration,auto_needs_review,京都市北区,京都府京都市北区紫野下門前町19054,35.042331,135.748776,excluded_non_primary,commercial_business,commercial operation confirmed by description,,
0000000679,神馬堂,ジンバドウ,진바도,official_kana_transliteration,auto_needs_review,京都市北区,京都府京都市北区上賀茂御薗口町4,35.057985,135.751534,needs_review,ambiguous_facility,no high-confidence place or exclusion rule matched,,
0000006083,大徳寺精進料理「大徳寺一久」,ダイトクジショウジンリョウリ「ダイトクジイッキュウ」,다이토쿠지쇼진료리다이토쿠지이큐우,official_kana_transliteration,auto_needs_review,京都市北区,京都府京都市北区紫野下門前町20,35.041233,135.747646,excluded_non_primary,food_or_beverage,name matched /料理|食堂|レストラン|カフェ|喫茶|茶屋|料亭|割烹|菓子|菓寮|餅|豆腐|とうふ|納豆|漬物|パン|珈琲|コーヒー|ワイン|ビール|酒造|醤油|グリル|洋食|そば|うどん|寿司|鮨|焼肉|ラーメン|スイーツ|甘味|御すぐき|本舗|茶房|食文化|食事処/,,
0000000680,一和（一文字屋和輔）,イチワ,이치와,official_kana_transliteration,auto_needs_review,京都市北区,京都府京都市北区紫野今宮町69,35.045352,135.742779,needs_review,ambiguous_facility,no high-confidence place or exclusion rule matched,,
0000007953,大森リゾートキャンプ場,オオモリリゾートキャンプジョウ,오모리리조토캰푸조,official_kana_transliteration,auto_needs_review,京都市北区,京都府京都市北区大森東町340-2,35.146674,135.700089,excluded_non_primary,lodging_or_bathing,name matched /ホテル|旅館|民宿|ペンション|ロッジ|ゲストハウス|(^|[\s　])宿([\s　]|$)|小宿|お宿|宿泊所|青少年村|キャンプ場|温泉|足湯|スパ|spa|銭湯/,,
0000000681,あぶり餅 かざりや,アブリモチ カザリヤ,아부리모치 카자리야,official_kana_transliteration,auto_needs_review,京都市北区,京都府京都市北区紫野今宮町96 今宮神社東門前南側,35.045194,135.742779,excluded_non_primary,food_or_beverage,name matched /料理|食堂|レストラン|カフェ|喫茶|茶屋|料亭|割烹|菓子|菓寮|餅|豆腐|とうふ|納豆|漬物|パン|珈琲|コーヒー|ワイン|ビール|酒造|醤油|グリル|洋食|そば|うどん|寿司|鮨|焼肉|ラーメン|スイーツ|甘味|御すぐき|本舗|茶房|食文化|食事処/,,
0000008680,上賀茂手づくり市,カミガモテヅクリイチ,카미가모테즈쿠리이치,official_kana_transliteration,auto_needs_review,京都市北区,京都府京都市北区上賀茂本山339 上賀茂神社境内,35.059333,135.752927,excluded_non_primary,time_limited_event,name matched /手づくり市|手作り市|骨董市|亀の市|天神さんの市|弘法さんの市|祭$|祭り|まつり|イベント|ライトアップ|大会$|行列$/,,
0000000682,大徳寺納豆,ダイトクジナットウ,다이토쿠지나토,official_kana_transliteration,auto_needs_review,京都市北区,京都府京都市北区,,,excluded_non_primary,food_or_beverage,name matched /料理|食堂|レストラン|カフェ|喫茶|茶屋|料亭|割烹|菓子|菓寮|餅|豆腐|とうふ|納豆|漬物|パン|珈琲|コーヒー|ワイン|ビール|酒造|醤油|グリル|洋食|そば|うどん|寿司|鮨|焼肉|ラーメン|スイーツ|甘味|御すぐき|本舗|茶房|食文化|食事処/,,
0000006735,志明院,シミョウイン,시묘인,official_kana_transliteration,auto_needs_review,京都市北区,京都府京都市北区雲ケ畑出谷町261,35.136092,135.709356,primary,religious_site,religious suffix confirmed by description,,
0000000684,龍源院,リョウゲンイン,료겐인,official_kana_transliteration,auto_needs_review,京都市北区,京都府京都市北区紫野大徳寺町29952,35.042137,135.746148,primary,religious_site,religious suffix confirmed by description,,
0000007723,手仕事雑貨屋 風土,テシゴトザッカヤ フウド,테시고토자카야 후우도,official_kana_transliteration,auto_needs_review,京都市北区,京都府京都市北区紫野西御所田町12451,35.040872,135.751039,excluded_non_primary,commercial_business,commercial operation confirmed by description,,
0000000687,高桐院,コウトウイン,코토인,official_kana_transliteration,auto_needs_review,京都市北区,京都府京都市北区紫野大徳寺町26665,35.043172,135.743204,primary,religious_site,religious suffix confirmed by description,,
0000006097,長久堂,チョウキュウドウ,초큐우도,official_kana_transliteration,auto_needs_review,京都市北区,京都府京都市北区上賀茂畔勝町35490,35.055291,135.766823,needs_review,ambiguous_facility,no high-confidence place or exclusion rule matched,,
0000003476,しょうざん／染織工芸館・茶花園・体験教室,ショウザン／センショクコウゲイカン・チャバナエン・タイケンキョウシツ,쇼잔 센쇼쿠공예칸 차바나엔 타이켄교시쓰,official_kana_transliteration,auto_needs_review,京都市北区,京都府京都市北区衣笠鏡石町47,35.049674,135.733142,excluded_non_primary,commercial_business,commercial operation confirmed by description,,
0000003708,社家,シャケ,샤케,official_kana_transliteration,auto_needs_review,京都市北区,京都府京都市北区上賀茂神社の南側あたり,35.057788,135.754425,primary,district_or_street,named district confirmed by description,,
0000000233,深泥池,ミドロガイケ（ミゾロガイケ）,미도로가이케(미조로가이케),official_kana_transliteration,auto_needs_review,京都市北区,京都府京都市北区上賀茂,35.057771,135.768309,primary,nature_or_park,natural-feature suffix confirmed by description,,
0000009496,大仙院,ダイセンイン,다이센인,curated_standard_translation,reviewed,京都市北区,京都府京都市北区紫野大徳寺町19725,35.044584,135.745952,primary,religious_site,religious suffix confirmed by description,,
0000000255,大田神社,オオタジンジャ,오타신사,official_kana_transliteration,auto_needs_review,京都市北区,京都府京都市北区上賀茂本山340,35.059830,135.758501,primary,religious_site,name matched /寺|神社|神宮|天満宮|大社|地蔵|不動|観音|霊廟|墓所/,,
0000007797,表千家北山会館,オモテセンケキタヤマカイカン,오모테센케키타야마카이칸,official_kana_transliteration,auto_needs_review,京都市北区,京都府京都市北区上賀茂桜井町61,35.051269,135.761942,needs_review,visitor_cultural_candidate,"visitor-facing facility, but hall/center names may mix museums, shops and public services",,
0000003470,賀茂別雷神社（上賀茂神社）,カモワケイカヅチジンジャ（カミガモジンジャ）,카모와케이카즈치신사(카미가모신사),official_kana_transliteration,auto_needs_review,京都市北区,京都府京都市北区上賀茂本山339,35.059293,135.752531,primary,religious_site,name matched /寺|神社|神宮|天満宮|大社|地蔵|不動|観音|霊廟|墓所/,,
0000007796,大宮交通公園,オオミヤコウツウコウエン,오미야교통공원,official_kana_transliteration,auto_needs_review,京都市北区,京都府京都市北区大宮西脇台町,35.053348,135.743392,primary,nature_or_park,name matched /公園($|[\s　（(])|庭園($|[\s　（(])|植物園|動物園|水族館|渓谷|峡谷|竹林|遊歩道|哲学の道/,,
0000003559,立命館大学国際平和ミュージアム（2021年4月1日～2023年9月までリニューアルのため休館）,リツメイカンダイガクコクサイヘイワミュージアム,리쓰메이칸대학코쿠사이헤이와뮤지엄,official_kana_transliteration,auto_needs_review,京都市北区,京都府京都市北区等持院北町20455,35.033659,135.727344,excluded_non_primary,closed_or_expired,name matched /休館|閉館|公開終了/,,
0000008703,梅辻家住宅,ウメツジケジュウタク,우메쓰지케주택,official_kana_transliteration,auto_needs_review,京都市北区,京都府京都市北区上賀茂北大路町39,35.058151,135.757217,primary,heritage_or_landmark,name matched /城|御所|離宮|旧宅|住宅|邸$|史跡|遺跡|古墳|町並み|街道|橋$|坂$|市場$|タワー|展望|映画村|劇場|能楽堂|歌舞練場|疏水|水路閣/,,
0000003561,高麗美術館,コウライビジュツカン,코라이미술관,official_kana_transliteration,auto_needs_review,京都市北区,京都府京都市北区紫竹上ノ岸町15,35.054360,135.750817,primary,museum_or_gallery,name matched /博物館|美術館|資料館|記念館|ミュージアム/,,
0000009494,瑞峯院,ズイホウイン,즈이호인,curated_standard_translation,reviewed,京都市北区,京都府京都市北区紫野大徳寺町81,35.042077,135.745466,primary,religious_site,religious suffix confirmed by description,,
0000001120,キャピタル東洋亭本店,キャピタルトウヨウテイホンテン,캬피타루토요테이혼텐,official_kana_transliteration,auto_needs_review,京都市北区,京都府京都市北区上賀茂岩ヶ垣内町44283,35.051340,135.763483,excluded_non_primary,retail_or_rental_service,name matched /レンタル|貸衣装|着付け|変身|商店|ショップ|ショッピング|土産|専門店|工房|スタジオ|手創り体験|手作り体験|京あるき|サイクル|店($|[（(])/,,
0000009495,正伝寺,ショウデンジ,쇼덴지,curated_standard_translation,reviewed,京都市北区,京都府京都市北区西賀茂北鎮守菴町72,35.062372,135.736924,primary,religious_site,name matched /寺|神社|神宮|天満宮|大社|地蔵|不動|観音|霊廟|墓所/,,
0000000257,大徳寺,ダイトクジ,다이토쿠지,official_kana_transliteration,auto_needs_review,京都市北区,京都府京都市北区紫野大徳寺町53,35.043901,135.746032,primary,religious_site,name matched /寺|神社|神宮|天満宮|大社|地蔵|不動|観音|霊廟|墓所/,,
0000008455,あぶり餅,アブリモチ,아부리모치,official_kana_transliteration,auto_needs_review,京都市北区右京区,京都府,,,excluded_non_primary,food_or_beverage,name matched /料理|食堂|レストラン|カフェ|喫茶|茶屋|料亭|割烹|菓子|菓寮|餅|豆腐|とうふ|納豆|漬物|パン|珈琲|コーヒー|ワイン|ビール|酒造|醤油|グリル|洋食|そば|うどん|寿司|鮨|焼肉|ラーメン|スイーツ|甘味|御すぐき|本舗|茶房|食文化|食事処/,,
0000001124,四季育む宿 然林房,ネンリンボウ,넨린보,official_kana_transliteration,auto_needs_review,京都市北区,京都府京都市北区鷹峯北鷹峯町40,35.054708,135.728711,needs_review,ambiguous_facility,no high-confidence place or exclusion rule matched,,
0000000258,今宮神社,イマミヤジンジャ,이마미야신사,official_kana_transliteration,auto_needs_review,京都市北区,京都府京都市北区紫野今宮町,35.046012,135.742029,primary,religious_site,name matched /寺|神社|神宮|天満宮|大社|地蔵|不動|観音|霊廟|墓所/,,
0000003563,京都府立堂本印象美術館,キョウトフリツドウモトインショウビジュツカン,교토부립도모토인쇼미술관,official_kana_transliteration,auto_needs_review,京都市北区,京都府京都市北区平野上柳町44281,35.035151,135.726063,primary,museum_or_gallery,name matched /博物館|美術館|資料館|記念館|ミュージアム/,,
0000001122,ルルソン・キ・ボア,ルルソン・キ・ボア,루루손 키 보아,official_kana_transliteration,auto_needs_review,京都市北区,京都府京都市北区上賀茂豊田町,35.056837,135.765969,excluded_non_primary,commercial_business,commercial operation confirmed by description,,
0000001123,光悦茶家,コウエツヂャヤ,코에쓰지야,official_kana_transliteration,auto_needs_review,京都市北区,京都府京都市北区鷹峯光悦町,35.054137,135.729188,needs_review,ambiguous_facility,no high-confidence place or exclusion rule matched,,
0000000275,わら天神宮,ワラテンジングウ,와라텐신궁,official_kana_transliteration,auto_needs_review,京都市北区,京都府京都市北区衣笠天神森町10,35.036055,135.731627,primary,religious_site,name matched /寺|神社|神宮|天満宮|大社|地蔵|不動|観音|霊廟|墓所/,,
0000000261,常照寺,ジョウショウジ,조쇼지,official_kana_transliteration,auto_needs_review,京都市北区,京都府京都市北区鷹峯北鷹峯町1,35.055505,135.732844,primary,religious_site,name matched /寺|神社|神宮|天満宮|大社|地蔵|不動|観音|霊廟|墓所/,,
0000003290,京象嵌の館 川人象嵌・川人ハンズ,キョウゾウガンノヤカタ カワヒトゾウガン・カワヒトハンズ,교조간노야카타 카와히토조간 카와히토한즈,official_kana_transliteration,auto_needs_review,京都市北区,京都府京都市北区等持院南町76,35.026060,135.723899,excluded_non_primary,commercial_business,commercial operation confirmed by description,,
0000006757,京都の歴史を学ぶ（平安京の遺跡めぐりなど）,キョウトノレキシヲマナブ,교토노역사오마나부,official_kana_transliteration,auto_needs_review,京都市上京区,京都府京都市上京区今出川通大宮東入ル元伊佐町265-1,35.029953,135.749633,excluded_non_primary,abstract_course,name matched /を学ぶ|めぐり|コース$/,,
0000003622,高津古文化会館,コウヅコブンカカイカン,코즈코분카카이칸,official_kana_transliteration,auto_needs_review,京都市上京区,京都府京都市上京区今出川通天神筋下ル大上之町61,35.026635,135.734499,needs_review,visitor_cultural_candidate,"visitor-facing facility, but hall/center names may mix museums, shops and public services",,
0000003732,京都こども文化会館（エンゼルハウス）,キョウトコドモブンカカイカン（エンゼルハウス）,교토코도모분카카이칸(엔제루하우스),official_kana_transliteration,auto_needs_review,京都市上京区,京都府京都市上京区一条通七本松西入ル,35.027004,135.738299,excluded_non_primary,administrative_or_sports_facility,name matched /体育館|運動場|競技場|武道センター|運動施設|府民ホール|運動公園|文化芸術会館|こども文化会館|国際交流会館|国際センター|コンベンション|会議場/,,
0000000074,千本釈迦堂（大報恩寺）,センボンシャカドウ（ダイホウオンジ）,센본샤카도(다이호온지),official_kana_transliteration,auto_needs_review,京都市上京区,京都府京都市上京区今出川七本松上ル溝前町,35.031604,135.739812,primary,religious_site,name matched /寺|神社|神宮|天満宮|大社|地蔵|不動|観音|霊廟|墓所/,,
0000004053,くるっとパーク御所東,クルットパークゴショヒガシ,쿠루토파쿠고쇼히가시,official_kana_transliteration,auto_needs_review,京都市上京区,京都府京都市上京区寺町通丸太町上ル松蔭町135-1,35.018790,135.767265,excluded_non_primary,parking,name matched /駐車場|パーキング|くるっとパーク/,,
0000003263,京とうふ藤野,キョウトウフフジノ,교토후후지노,official_kana_transliteration,auto_needs_review,京都市上京区,京都府京都市上京区今小路通御前西入紙屋川町843-7,35.027672,135.734547,excluded_non_primary,food_or_beverage,name matched /料理|食堂|レストラン|カフェ|喫茶|茶屋|料亭|割烹|菓子|菓寮|餅|豆腐|とうふ|納豆|漬物|パン|珈琲|コーヒー|ワイン|ビール|酒造|醤油|グリル|洋食|そば|うどん|寿司|鮨|焼肉|ラーメン|スイーツ|甘味|御すぐき|本舗|茶房|食文化|食事処/,,
0000009192,京やのお昼・甘味処 ShiじMa,キョウヤノオヒル・カンミドコロ シジマ,교야노오히루 칸미도코로 시지마,official_kana_transliteration,auto_needs_review,京都市上京区,京都府京都市上京区油小路一条下る油橋詰町,35.025918,135.753878,excluded_non_primary,food_or_beverage,name matched /料理|食堂|レストラン|カフェ|喫茶|茶屋|料亭|割烹|菓子|菓寮|餅|豆腐|とうふ|納豆|漬物|パン|珈琲|コーヒー|ワイン|ビール|酒造|醤油|グリル|洋食|そば|うどん|寿司|鮨|焼肉|ラーメン|スイーツ|甘味|御すぐき|本舗|茶房|食文化|食事処/,,
0000003262,菓遊茶屋,カユウヂャヤ,카유우지야,official_kana_transliteration,auto_needs_review,京都市上京区,京都府京都市上京区今出川通堀川西入ル（鶴屋吉信2階）,35.029955,135.751442,excluded_non_primary,food_or_beverage,name matched /料理|食堂|レストラン|カフェ|喫茶|茶屋|料亭|割烹|菓子|菓寮|餅|豆腐|とうふ|納豆|漬物|パン|珈琲|コーヒー|ワイン|ビール|酒造|醤油|グリル|洋食|そば|うどん|寿司|鮨|焼肉|ラーメン|スイーツ|甘味|御すぐき|本舗|茶房|食文化|食事処/,,
0000007716,弓月京店,ユヅキキョウミセ,유즈키교미세,official_kana_transliteration,auto_needs_review,京都市上京区,京都府京都市上京区上七軒701,35.030535,135.737400,excluded_non_primary,retail_or_rental_service,name matched /レンタル|貸衣装|着付け|変身|商店|ショップ|ショッピング|土産|専門店|工房|スタジオ|手創り体験|手作り体験|京あるき|サイクル|店($|[（(])/,,
0000003261,近為,キンタメ,킨타메,official_kana_transliteration,auto_needs_review,京都市上京区,京都府京都市上京区千本通五辻上ル牡丹鉾町576,35.031269,135.741916,excluded_non_primary,commercial_business,commercial operation confirmed by description,,
0000006435,ホテルルビノ京都堀川,ホテルルビノキョウトホリカワ,호테루루비노교토호리카와,official_kana_transliteration,auto_needs_review,京都市上京区,京都府京都市上京区東堀川通下長者町下ル,35.021861,135.752421,excluded_non_primary,lodging_or_bathing,name matched /ホテル|旅館|民宿|ペンション|ロッジ|ゲストハウス|(^|[\s　])宿([\s　]|$)|小宿|お宿|宿泊所|青少年村|キャンプ場|温泉|足湯|スパ|spa|銭湯/,,
0000003260,萬亀楼,マンカメロウ,만카메로,official_kana_transliteration,auto_needs_review,京都市上京区,京都府京都市上京区猪熊通出水上ル蛭子町387,35.022142,135.750433,excluded_non_primary,commercial_business,commercial operation confirmed by description,,
0000003731,京都府立府民ホール（アルティ）,キョウトフリツフミンホール（アルティ）,교토부립후민호루(아루티),official_kana_transliteration,auto_needs_review,京都市上京区,京都府京都市上京区烏丸通一条下ル龍前町590-1,35.025444,135.758729,excluded_non_primary,administrative_or_sports_facility,name matched /体育館|運動場|競技場|武道センター|運動施設|府民ホール|運動公園|文化芸術会館|こども文化会館|国際交流会館|国際センター|コンベンション|会議場/,,
0000000075,釘抜地蔵（石像寺）,クギヌキジゾウ（シャクゾウジ）,쿠기누키지조(샤쿠조지),official_kana_transliteration,auto_needs_review,京都市上京区,京都府京都市上京区千本通り上立売上ル花車町503,35.033392,135.742213,primary,religious_site,name matched /寺|神社|神宮|天満宮|大社|地蔵|不動|観音|霊廟|墓所/,,
0000003730,京都府立文化芸術会館,キョウトフリツブンカゲイジュツカイカン,교토부립분카게이주쓰카이칸,official_kana_transliteration,auto_needs_review,京都市上京区,京都府京都市上京区寺町通広小路下ル東桜町1,35.022953,135.768850,excluded_non_primary,administrative_or_sports_facility,name matched /体育館|運動場|競技場|武道センター|運動施設|府民ホール|運動公園|文化芸術会館|こども文化会館|国際交流会館|国際センター|コンベンション|会議場/,,
0000000076,千本ゑんま堂（引接寺）,センボンエンマドウ（インジョウジ）,센본엔마도(인조지),official_kana_transliteration,auto_needs_review,京都市上京区,京都府京都市上京区千本通り鞍馬口下ル閻魔前町34,35.035111,135.740526,primary,religious_site,name matched /寺|神社|神宮|天満宮|大社|地蔵|不動|観音|霊廟|墓所/,,
0000004057,京都市出町駐車場,キョウトシデマチチュウシャジョウ,교토시데마치추우샤조,official_kana_transliteration,auto_needs_review,京都市上京区,京都府京都市上京区河原町通今出川上ル青龍町,35.030287,135.770041,excluded_non_primary,parking,name matched /駐車場|パーキング|くるっとパーク/,,
0000000056,梨木神社,ナシノキジンジャ,나시노키신사,official_kana_transliteration,auto_needs_review,京都市上京区,京都府京都市上京区寺町通広小路上ル染殿町,35.025090,135.767338,primary,religious_site,name matched /寺|神社|神宮|天満宮|大社|地蔵|不動|観音|霊廟|墓所/,,
0000006436,御所西 京都平安ホテル,ゴショニシ キョウトヘイアンホテル,고쇼니시 교토헤이안호테루,official_kana_transliteration,auto_needs_review,京都市上京区,京都府京都市上京区烏丸通上長者町上ル,35.024437,135.758896,excluded_non_primary,lodging_or_bathing,name matched /ホテル|旅館|民宿|ペンション|ロッジ|ゲストハウス|(^|[\s　])宿([\s　]|$)|小宿|お宿|宿泊所|青少年村|キャンプ場|温泉|足湯|スパ|spa|銭湯/,,
0000000080,宝鏡寺（人形の寺）,ホウキョウジ（ニンギョウノテラ）,호교지(닌교노테라),official_kana_transliteration,auto_needs_review,京都市上京区,京都府京都市上京区寺之内通堀川東入ル百々町547,35.034062,135.752714,primary,religious_site,name matched /寺|神社|神宮|天満宮|大社|地蔵|不動|観音|霊廟|墓所/,,
0000007317,西陣くらしの美術館 冨田屋,トンダヤ,톤다야,official_kana_transliteration,auto_needs_review,京都市上京区,京都府京都市上京区大宮通一条上ル,35.027438,135.748891,primary,museum_or_gallery,name matched /博物館|美術館|資料館|記念館|ミュージアム/,,
0000001092,天喜,テンキ,텐키,official_kana_transliteration,auto_needs_review,京都市上京区,京都府京都市上京区千本通今出川上ル上善寺町89,35.030612,135.742124,excluded_non_primary,commercial_business,commercial operation confirmed by description,,
0000007711,小宿 布屋,オヤド ヌノヤ,오야도 누노야,official_kana_transliteration,auto_needs_review,京都市上京区,京都府京都市上京区油小路丸太町上る米屋町281,35.018206,135.753516,excluded_non_primary,lodging_or_bathing,name matched /ホテル|旅館|民宿|ペンション|ロッジ|ゲストハウス|(^|[\s　])宿([\s　]|$)|小宿|お宿|宿泊所|青少年村|キャンプ場|温泉|足湯|スパ|spa|銭湯/,,
0000000057,廬山寺,ロザンジ,로잔지,official_kana_transliteration,auto_needs_review,京都市上京区,京都府京都市上京区寺町通広小路上ル北之辺町397,35.024633,135.768280,primary,religious_site,name matched /寺|神社|神宮|天満宮|大社|地蔵|不動|観音|霊廟|墓所/,,
0000009089,御所西あいぜん 西村兄妹キモノ店,ゴショニシアイゼン ニシムラキョウダイキモノテン,고쇼니시아이젠 니시무라교다이키모노텐,official_kana_transliteration,auto_needs_review,京都市上京区,京都府京都市上京区上長者町通室町西入る,35.023734,135.757603,excluded_non_primary,retail_or_rental_service,name matched /レンタル|貸衣装|着付け|変身|商店|ショップ|ショッピング|土産|専門店|工房|スタジオ|手創り体験|手作り体験|京あるき|サイクル|店($|[（(])/,,
0000003484,公益財団法人手織技術振興財団 織成舘,オリナスカン,오리나스칸,official_kana_transliteration,auto_needs_review,京都市上京区,京都府京都市上京区浄福寺通上立売上ル大黒町693,35.032855,135.745410,needs_review,ambiguous_facility,no high-confidence place or exclusion rule matched,,
0000007751,上七軒くろすけ,カミシチケンクロスケ,카미시치켄쿠로스케,official_kana_transliteration,auto_needs_review,京都市上京区,京都府京都市上京区今出川通七本松西入ル真盛町699,35.030675,135.737294,primary,district_or_street,named district confirmed by description,,
0000000072,西陣,ニシジン,니시진,official_kana_transliteration,auto_needs_review,京都市上京区,京都府京都市上京区,,,primary,district_or_street,named district confirmed by description,,
0000006077,虎屋菓寮 京都一条店,トラヤカリョウ キョウトイチジョウテン,토라야카료 교토이치조텐,official_kana_transliteration,auto_needs_review,京都市上京区,京都府京都市上京区一条通烏丸西入広橋殿町400,35.026460,135.758525,excluded_non_primary,food_or_beverage,name matched /料理|食堂|レストラン|カフェ|喫茶|茶屋|料亭|割烹|菓子|菓寮|餅|豆腐|とうふ|納豆|漬物|パン|珈琲|コーヒー|ワイン|ビール|酒造|醤油|グリル|洋食|そば|うどん|寿司|鮨|焼肉|ラーメン|スイーツ|甘味|御すぐき|本舗|茶房|食文化|食事処/,,
0000000078,上七軒,カミシチケン,카미시치켄,official_kana_transliteration,auto_needs_review,京都市上京区,京都府京都市上京区今出川通七本松西入真盛町742,35.029960,135.736726,primary,district_or_street,named district confirmed by description,,
0000006105,染井,ソメイ,소메이,official_kana_transliteration,auto_needs_review,京都市上京区,京都府京都市上京区寺町通広小路上ル染殿町,35.025091,135.767338,needs_review,ambiguous_facility,no high-confidence place or exclusion rule matched,,
0000000081,本法寺,ホンポウジ,혼포지,official_kana_transliteration,auto_needs_review,京都市上京区,京都府京都市上京区小川通寺之内上る本法寺前町617,35.035020,135.752137,primary,religious_site,name matched /寺|神社|神宮|天満宮|大社|地蔵|不動|観音|霊廟|墓所/,,
0000006078,千本玉壽軒,センボンタマジュケン,센본타마주켄,official_kana_transliteration,auto_needs_review,京都市上京区,京都府京都市上京区千本通今出川上ル,35.030517,135.741918,needs_review,ambiguous_facility,no high-confidence place or exclusion rule matched,,
0000003621,相国寺承天閣美術館,ショウコクジジョウテンカクビジュツカン,쇼코쿠지조텐카쿠미술관,official_kana_transliteration,auto_needs_review,京都市上京区,京都府京都市上京区今出川通烏丸東入相国寺門前町701,35.033620,135.762612,primary,religious_site,name matched /寺|神社|神宮|天満宮|大社|地蔵|不動|観音|霊廟|墓所/,,
0000009488,瑞春院,ズイシュンイン,즈이슌인,official_kana_transliteration,auto_needs_review,京都市上京区,京都府京都市上京区今出川烏丸東入相国寺門前町701,35.032223,135.760229,primary,religious_site,religious suffix confirmed by description,,
0000003619,茶道資料館・今日庵文庫,チャドウシリョウカン・コンニチアンブンコ,차도자료관 콘니치안분코,official_kana_transliteration,auto_needs_review,京都市上京区,京都府京都市上京区堀川通寺之内上る寺之内竪町682番地 裏千家センター内,35.034740,135.752018,primary,museum_or_gallery,name matched /博物館|美術館|資料館|記念館|ミュージアム/,,
0000007728,あかりデザイン工房,アカリデザインコウボウ,아카리데자인코보,official_kana_transliteration,auto_needs_review,京都市上京区,京都府京都市上京区下之町422番地,35.018771,135.736418,excluded_non_primary,retail_or_rental_service,name matched /レンタル|貸衣装|着付け|変身|商店|ショップ|ショッピング|土産|専門店|工房|スタジオ|手創り体験|手作り体験|京あるき|サイクル|店($|[（(])/,,
0000003482,西陣織会館,ニシジンオリカイカン,니시진오리카이칸,official_kana_transliteration,auto_needs_review,京都市上京区,京都府京都市上京区西堀川通元誓願寺上る竪門前町414番地,35.028774,135.751678,needs_review,visitor_cultural_candidate,"visitor-facing facility, but hall/center names may mix museums, shops and public services",,
0000008683,囀市,サエズリイチ,사에즈리이치,official_kana_transliteration,auto_needs_review,京都市上京区,京都府京都市上京区上御霊前通烏丸東入ル上御霊竪町495 御霊神社境内,35.036512,135.761617,needs_review,ambiguous_facility,no high-confidence place or exclusion rule matched,,
0000000101,長五郎餅本舗,チョウゴロウモチホンポ,초고로모치혼포,official_kana_transliteration,auto_needs_review,京都市上京区,京都府京都市上京区一条通り七本松西入ル,35.026573,135.738456,excluded_non_primary,food_or_beverage,name matched /料理|食堂|レストラン|カフェ|喫茶|茶屋|料亭|割烹|菓子|菓寮|餅|豆腐|とうふ|納豆|漬物|パン|珈琲|コーヒー|ワイン|ビール|酒造|醤油|グリル|洋食|そば|うどん|寿司|鮨|焼肉|ラーメン|スイーツ|甘味|御すぐき|本舗|茶房|食文化|食事処/,,
0000004006,佐々木酒造株式会社,ササキシュゾウ,사사키슈조,official_kana_transliteration,auto_needs_review,京都市上京区,京都府京都市上京区日暮通椹木町下ル北伊勢屋町727,35.018643,135.747676,excluded_non_primary,food_or_beverage,name matched /料理|食堂|レストラン|カフェ|喫茶|茶屋|料亭|割烹|菓子|菓寮|餅|豆腐|とうふ|納豆|漬物|パン|珈琲|コーヒー|ワイン|ビール|酒造|醤油|グリル|洋食|そば|うどん|寿司|鮨|焼肉|ラーメン|スイーツ|甘味|御すぐき|本舗|茶房|食文化|食事処/,,
0000000054,京都御所,キョウトゴショ,교토고쇼,curated_standard_translation,reviewed,京都市上京区,京都府京都市上京区京都御苑,35.025423,135.762126,primary,heritage_or_landmark,name matched /城|御所|離宮|旧宅|住宅|邸$|史跡|遺跡|古墳|町並み|街道|橋$|坂$|市場$|タワー|展望|映画村|劇場|能楽堂|歌舞練場|疏水|水路閣/,,
0000009487,京菓子資料館,キョウガシシリョウカン,교가시자료관,official_kana_transliteration,auto_needs_review,京都市上京区,京都府京都市上京区烏丸通上立売上ル柳図子町331-2,35.032433,135.758969,excluded_non_primary,food_or_beverage,name matched /料理|食堂|レストラン|カフェ|喫茶|茶屋|料亭|割烹|菓子|菓寮|餅|豆腐|とうふ|納豆|漬物|パン|珈琲|コーヒー|ワイン|ビール|酒造|醤油|グリル|洋食|そば|うどん|寿司|鮨|焼肉|ラーメン|スイーツ|甘味|御すぐき|本舗|茶房|食文化|食事処/,,
0000000100,鶴屋吉信,ツルヤヨシノブ,쓰루야요시노부,official_kana_transliteration,auto_needs_review,京都市上京区,京都府京都市上京区今出川堀川西入ル,35.029954,135.751441,excluded_non_primary,commercial_business,commercial operation confirmed by description,,
0000007720,京西陣 菓匠 宗禅,キョウニシジン カショウ ソウゼン,교니시진 카쇼 소젠,official_kana_transliteration,auto_needs_review,京都市上京区,京都府京都市上京区寺之内通浄福寺東角,35.033991,135.745756,needs_review,ambiguous_facility,no high-confidence place or exclusion rule matched,,
0000000102,一条戻り橋,イチジョウモドリバシ,이치조모도리바시,official_kana_transliteration,auto_needs_review,京都市上京区,京都府京都市上京区,35.026289,135.751947,primary,heritage_or_landmark,name matched /城|御所|離宮|旧宅|住宅|邸$|史跡|遺跡|古墳|町並み|街道|橋$|坂$|市場$|タワー|展望|映画村|劇場|能楽堂|歌舞練場|疏水|水路閣/,,
0000009445,TAKENOKO 有限会社横山竹材店,ヨコヤマタケザイテン,요코야마타케자이텐,official_kana_transliteration,auto_needs_review,京都市上京区,京都府京都市上京区亀屋町135,35.023392,135.753706,excluded_non_primary,retail_or_rental_service,name matched /レンタル|貸衣装|着付け|変身|商店|ショップ|ショッピング|土産|専門店|工房|スタジオ|手創り体験|手作り体験|京あるき|サイクル|店($|[（(])/,,
0000003620,大将軍八神社方徳殿,ダイショウグンハチジンジャホウトクデン,다이쇼군하치신사호토쿠덴,official_kana_transliteration,auto_needs_review,京都市上京区,京都府京都市上京区一条通御前西入,35.026655,135.733948,primary,religious_site,name matched /寺|神社|神宮|天満宮|大社|地蔵|不動|観音|霊廟|墓所/,,
0000008688,天神さんの市,テンジンサンノイチ,텐진산노이치,official_kana_transliteration,auto_needs_review,京都市上京区,京都府京都市上京区馬喰町 北野天満宮境内,35.031135,135.735109,excluded_non_primary,time_limited_event,name matched /手づくり市|手作り市|骨董市|亀の市|天神さんの市|弘法さんの市|祭$|祭り|まつり|イベント|ライトアップ|大会$|行列$/,,
0000003318,山田松香木店,ヤマダマツコウボクテン,야마다마쓰코보쿠텐,official_kana_transliteration,auto_needs_review,京都市上京区,京都府京都市上京区室町通下立売上ル勘解由小路町164,35.021128,135.757859,excluded_non_primary,retail_or_rental_service,name matched /レンタル|貸衣装|着付け|変身|商店|ショップ|ショッピング|土産|専門店|工房|スタジオ|手創り体験|手作り体験|京あるき|サイクル|店($|[（(])/,,
0000003828,ギャラリー紫織庵,ギャラリーシオリアン,갸라리시오리안,official_kana_transliteration,auto_needs_review,京都市上京区,京都府京都市上京区浄福寺通上立売上る大黒町709,35.033254,135.745582,needs_review,ambiguous_facility,no high-confidence place or exclusion rule matched,,
0000000067,慈照院,ジショウイン,지쇼인,official_kana_transliteration,auto_needs_review,京都市上京区,京都府京都市上京区今出川通烏丸東入相国寺門前町703,35.035304,135.759757,primary,religious_site,religious suffix confirmed by description,,
0000009477,京の手創り体験,キョウノテヅクリタイケン,교노테즈쿠리타이켄,official_kana_transliteration,auto_needs_review,京都市上京区,京都府京都市上京区堀川通今出川南入る竪門前町414 西陣織産業会館西館101号,35.028775,135.751678,excluded_non_primary,retail_or_rental_service,name matched /レンタル|貸衣装|着付け|変身|商店|ショップ|ショッピング|土産|専門店|工房|スタジオ|手創り体験|手作り体験|京あるき|サイクル|店($|[（(])/,,
0000003625,樂美術館,ラクビジュツカン,라쿠미술관,official_kana_transliteration,auto_needs_review,京都市上京区,京都府京都市上京区油小路通一条下る,35.025565,135.753464,primary,museum_or_gallery,name matched /博物館|美術館|資料館|記念館|ミュージアム/,,
0000009614,ハリス理化学館同志社ギャラリー,ハリスリカガクカンドウシシャギャラリー,하리스리카가쿠칸도시샤갸라리,official_kana_transliteration,auto_needs_review,京都市上京区,京都府京都市上京区今出川通烏丸東入 同志社大学今出川キャンパス,35.030318,135.760981,needs_review,ambiguous_facility,no high-confidence place or exclusion rule matched,,
0000003487,安達くみひも館,アダチクミヒモカン,아다치쿠미히모칸,official_kana_transliteration,auto_needs_review,京都市上京区,京都府京都市上京区出水通烏丸西入ル中出水町392,35.021156,135.758570,needs_review,visitor_cultural_candidate,"visitor-facing facility, but hall/center names may mix museums, shops and public services",,
0000009194,京・西陣 孝太郎の酢,キョウ・ニシジン コウタロウノス,교 니시진 코타로노스,official_kana_transliteration,auto_needs_review,京都市上京区,京都府京都市上京区新町通寺之内上る東入る道正町455,35.034312,135.755982,excluded_non_primary,commercial_business,commercial operation confirmed by description,,
0000003381,妙蓮寺,ミョウレンジ,묘렌지,official_kana_transliteration,auto_needs_review,京都市上京区,京都府京都市上京区寺之内通大宮東入ル妙蓮寺前町875,35.034638,135.750021,primary,religious_site,name matched /寺|神社|神宮|天満宮|大社|地蔵|不動|観音|霊廟|墓所/,,
0000009193,澤井醤油 本店,サワイショウユ ホンテン,사와이쇼유 혼텐,official_kana_transliteration,auto_needs_review,京都市上京区,京都府京都市上京区中長者町新町西入る仲之町292,35.023464,135.756453,excluded_non_primary,food_or_beverage,name matched /料理|食堂|レストラン|カフェ|喫茶|茶屋|料亭|割烹|菓子|菓寮|餅|豆腐|とうふ|納豆|漬物|パン|珈琲|コーヒー|ワイン|ビール|酒造|醤油|グリル|洋食|そば|うどん|寿司|鮨|焼肉|ラーメン|スイーツ|甘味|御すぐき|本舗|茶房|食文化|食事処/,,
0000000028,町家写真館,マチヤシャシンカン,마치야샤신칸,official_kana_transliteration,auto_needs_review,京都市上京区,京都府京都市上京区大宮通元誓願寺下ル,35.027720,135.748756,needs_review,ambiguous_facility,no high-confidence place or exclusion rule matched,,
0000008668,京漆器・蒔絵 平野,キョウシッキ・マキエ ヒラノ,교시키 마키에 히라노,official_kana_transliteration,auto_needs_review,京都市上京区,京都府京都市上京区寺之内通千本東入る新猪熊町415,35.034364,135.741859,needs_review,ambiguous_facility,no high-confidence place or exclusion rule matched,,
0000000059,相国寺,ショウコクジ,쇼코쿠지,official_kana_transliteration,auto_needs_review,京都市上京区,京都府京都市上京区相国寺門前町701,35.032558,135.762008,primary,religious_site,name matched /寺|神社|神宮|天満宮|大社|地蔵|不動|観音|霊廟|墓所/,,
0000003624,京都市考古資料館,キョウトシコウコシリョウカン,교토시고고자료관,official_kana_transliteration,auto_needs_review,京都市上京区,京都府京都市上京区今出川通大宮東入ル元伊佐町265-1,35.029944,135.749640,primary,museum_or_gallery,name matched /博物館|美術館|資料館|記念館|ミュージアム/,,
0000003623,京都市歴史資料館,キョウトシレキシシリョウカン,교토시역사자료관,official_kana_transliteration,auto_needs_review,京都市上京区,京都府京都市上京区寺町通荒神口下る松蔭町138-1,35.019172,135.767635,primary,museum_or_gallery,name matched /博物館|美術館|資料館|記念館|ミュージアム/,,
0000003616,国定史跡「頼山陽書斎山紫水明處」,コクテイシセキ「ライサンヨウショサイサンシスイメイショ,코쿠테이사적라이산요쇼사이산시스이메이쇼,official_kana_transliteration,auto_needs_review,京都市上京区,京都府京都市上京区東三本木通丸太町上ル南町,35.018134,135.770843,primary,heritage_or_landmark,name matched /城|御所|離宮|旧宅|住宅|邸$|史跡|遺跡|古墳|町並み|街道|橋$|坂$|市場$|タワー|展望|映画村|劇場|能楽堂|歌舞練場|疏水|水路閣/,,
0000003617,北村美術館,キタムラビジュツカン,키타무라미술관,official_kana_transliteration,auto_needs_review,京都市上京区,京都府京都市上京区河原町今出川下ル一筋目東入ル梶井町448,35.028036,135.770371,primary,museum_or_gallery,name matched /博物館|美術館|資料館|記念館|ミュージアム/,,
0000001093,鳥岩楼,トリイワロウ,토리이와로,official_kana_transliteration,auto_needs_review,京都市上京区,京都府京都市上京区五辻通智恵光院西入ル五辻町75,35.030976,135.746662,excluded_non_primary,commercial_business,commercial operation confirmed by description,,
0000003702,金剛能楽堂／能・狂言,コンゴウノウガクドウ／ノウ・キョウゲン,콘고노가쿠도 노 교겐,official_kana_transliteration,auto_needs_review,京都市上京区,京都府京都市上京区烏丸通中立売上る,35.025850,135.758893,primary,heritage_or_landmark,name matched /城|御所|離宮|旧宅|住宅|邸$|史跡|遺跡|古墳|町並み|街道|橋$|坂$|市場$|タワー|展望|映画村|劇場|能楽堂|歌舞練場|疏水|水路閣/,,
0000003703,北野天満宮,キタノテンマングウ,기타노텐만구,curated_standard_translation,reviewed,京都市上京区,京都府京都市上京区馬喰町,35.031135,135.735109,primary,religious_site,name matched /寺|神社|神宮|天満宮|大社|地蔵|不動|観音|霊廟|墓所/,,
0000000058,護王神社,ゴオウジンジャ,고오우신사,official_kana_transliteration,auto_needs_review,京都市上京区,京都府京都市上京区烏丸通下長者町下ル桜鶴円町385,35.022205,135.758999,primary,religious_site,name matched /寺|神社|神宮|天満宮|大社|地蔵|不動|観音|霊廟|墓所/,,
0000003626,益富地学会館,マストミチガクカイカン,마스토미치가쿠카이칸,official_kana_transliteration,auto_needs_review,京都市上京区,京都府京都市上京区出水通烏丸西入ル中出水町394,35.021480,135.758653,needs_review,visitor_cultural_candidate,"visitor-facing facility, but hall/center names may mix museums, shops and public services",,
0000000007,老松 北野店,オイマツ キタノテン,오이마쓰 키타노텐,official_kana_transliteration,auto_needs_review,京都市上京区,京都府京都市上京区北野上七軒,35.030717,135.736799,excluded_non_primary,retail_or_rental_service,name matched /レンタル|貸衣装|着付け|変身|商店|ショップ|ショッピング|土産|専門店|工房|スタジオ|手創り体験|手作り体験|京あるき|サイクル|店($|[（(])/,,
0000009499,鞍馬寺,クラマデラ,쿠라마데라,official_kana_transliteration,auto_needs_review,京都市左京区,京都府京都市左京区鞍馬本町1074,35.117944,135.770838,primary,religious_site,name matched /寺|神社|神宮|天満宮|大社|地蔵|不動|観音|霊廟|墓所/,,
0000003655,鞍馬山霊宝殿,クラマヤマレイホウデン,쿠라마야마레이호덴,official_kana_transliteration,auto_needs_review,京都市左京区,京都府京都市左京区鞍馬本町1074,35.118300,135.769356,needs_review,ambiguous_facility,no high-confidence place or exclusion rule matched,,
0000003930,竹茂楼,タケシゲロウ,타케시게로,official_kana_transliteration,auto_needs_review,京都市左京区,京都府京都市左京区粟田口鳥居町65,35.010055,135.785168,excluded_non_primary,commercial_business,commercial operation confirmed by description,,
0000003650,京都国立近代美術館,キョウトコクリツキンダイビジュツカン,교토국립근대미술관,official_kana_transliteration,auto_needs_review,京都市左京区,京都府京都市左京区岡崎円勝寺町,35.012388,135.781971,primary,museum_or_gallery,name matched /博物館|美術館|資料館|記念館|ミュージアム/,,
0000009508,圓光寺,エンコウジ,엔코지,official_kana_transliteration,auto_needs_review,京都市左京区,京都府京都市左京区一乗寺小谷町13,35.045088,135.797088,primary,religious_site,name matched /寺|神社|神宮|天満宮|大社|地蔵|不動|観音|霊廟|墓所/,,
0000003721,無鄰菴,ムリンアン,무린안,official_kana_transliteration,auto_needs_review,京都市左京区,京都府京都市左京区南禅寺草川町31,35.011587,135.787078,needs_review,ambiguous_facility,no high-confidence place or exclusion rule matched,,
0000009073,京都市武道センター,キョウトシブドウセンター,교토시부도센타,official_kana_transliteration,auto_needs_review,京都市左京区,京都府京都市左京区聖護院円頓美町16834,35.017019,135.780813,excluded_non_primary,administrative_or_sports_facility,name matched /体育館|運動場|競技場|武道センター|運動施設|府民ホール|運動公園|文化芸術会館|こども文化会館|国際交流会館|国際センター|コンベンション|会議場/,,
0000003372,妙円寺・松ヶ崎大黒天,ミョウエンジ・マツガサキダイコクテン,묘엔지 마쓰가사키다이코쿠텐,official_kana_transliteration,auto_needs_review,京都市左京区,京都府京都市左京区松ケ崎東町31,35.053990,135.785520,primary,religious_site,name matched /寺|神社|神宮|天満宮|大社|地蔵|不動|観音|霊廟|墓所/,,
0000008183,法然院森のセンター,ホウネンインモリノセンター,호넨인모리노센타,official_kana_transliteration,auto_needs_review,京都市左京区,京都府京都市左京区鹿ケ谷法然院町26330,35.023327,135.796651,needs_review,visitor_cultural_candidate,"visitor-facing facility, but hall/center names may mix museums, shops and public services",,
0000003265,瓢亭,ヒョウテイ,효테이,official_kana_transliteration,auto_needs_review,京都市左京区,京都府京都市左京区南禅寺草川町,35.011429,135.786739,excluded_non_primary,commercial_business,commercial operation confirmed by description,,
0000003929,六盛,ロクセイ,로쿠세이,official_kana_transliteration,auto_needs_review,京都市左京区,京都府京都市左京区岡崎西天王町71,35.015796,135.779589,needs_review,ambiguous_facility,no high-confidence place or exclusion rule matched,,
0000003649,京都市京セラ美術館（京都市美術館）,キョウトシキョウセラビジュツカン（キョウトシビジュツカン）,교토시교세라미술관(교토시미술관),official_kana_transliteration,auto_needs_review,京都市左京区,京都府京都市左京区岡崎円勝寺町124,35.012850,135.783571,primary,museum_or_gallery,name matched /博物館|美術館|資料館|記念館|ミュージアム/,,
0000004052,岡崎公園駐車場,オカザキコウエンチュウシャジョウ,오카자키공원추우샤조,official_kana_transliteration,auto_needs_review,京都市左京区,京都府京都市左京区岡崎最勝寺町63（グラウンド地下）・西天王町98,35.013998,135.783505,excluded_non_primary,parking,name matched /駐車場|パーキング|くるっとパーク/,,
0000000521,安楽寺,アンラクジ,안라쿠지,official_kana_transliteration,auto_needs_review,京都市左京区,京都府京都市左京区鹿ケ谷御所ノ段町21番地,35.021582,135.796628,primary,religious_site,name matched /寺|神社|神宮|天満宮|大社|地蔵|不動|観音|霊廟|墓所/,,
0000004060,京都市銀閣寺観光駐車場,キョウトシギンカクジカンコウチュウシャジョウ,교토시긴카쿠지칸코추우샤조,official_kana_transliteration,auto_needs_review,京都市左京区,京都府京都市左京区浄土寺石橋町62,35.026670,135.795066,excluded_non_primary,parking,name matched /駐車場|パーキング|くるっとパーク/,,
0000003652,国指定史跡岩倉具視幽棲旧宅,クニシテイシセキイワクラトモミユウセイキュウタク,쿠니시테이사적이와쿠라토모미유우세이구택,official_kana_transliteration,auto_needs_review,京都市左京区,京都府京都市左京区岩倉上蔵町100,35.078446,135.783133,primary,heritage_or_landmark,name matched /城|御所|離宮|旧宅|住宅|邸$|史跡|遺跡|古墳|町並み|街道|橋$|坂$|市場$|タワー|展望|映画村|劇場|能楽堂|歌舞練場|疏水|水路閣/,,
0000009504,詩仙堂（丈山寺）,シセンドウ（ジョウザンジ）,시센도(조잔지),official_kana_transliteration,auto_needs_review,京都市左京区,京都府京都市左京区一乗寺門口町27,35.043735,135.796131,primary,religious_site,name matched /寺|神社|神宮|天満宮|大社|地蔵|不動|観音|霊廟|墓所/,,
0000000158,永観堂（禅林寺）,エイカンドウ（ゼンリンジ）,에이칸도(젠린지),official_kana_transliteration,auto_needs_review,京都市左京区,京都府京都市左京区永観堂町48,35.014134,135.794997,primary,religious_site,name matched /寺|神社|神宮|天満宮|大社|地蔵|不動|観音|霊廟|墓所/,,
0000003931,下鴨茶寮,シモガモサリョウ,시모가모사료,official_kana_transliteration,auto_needs_review,京都市左京区,京都府京都市左京区下鴨宮河町62,35.034182,135.773981,excluded_non_primary,commercial_business,commercial operation confirmed by description,,
0000003233,京都市勧業館みやこめっせ,キョウトシカンギョウカンミヤコメッセ,교토시칸교칸미야코메세,official_kana_transliteration,auto_needs_review,京都市左京区,京都府京都市左京区岡崎成勝寺町44440,35.013039,135.780947,excluded_non_primary,commercial_business,commercial operation confirmed by description,,
0000007557,アートゾーン神楽岡,アートゾーンカグラオカ,아토존카구라오카,official_kana_transliteration,auto_needs_review,京都市左京区,京都府京都市左京区吉田神楽岡町4,35.024413,135.788186,needs_review,ambiguous_facility,no high-confidence place or exclusion rule matched,,
0000003269,ひろや,ヒロヤ,히로야,official_kana_transliteration,auto_needs_review,京都市左京区,京都府京都市左京区鞍馬貴船町56,35.122408,135.763408,excluded_non_primary,commercial_business,commercial operation confirmed by description,,
0000008714,京菓子講師倶楽部,キョウガシコウシクラブ,교가시코시쿠라부,official_kana_transliteration,auto_needs_review,京都市左京区,京都府京都市左京区下鴨東半木町67-12 京菓子司 笹屋吉清内（代表所在地）,35.044662,135.767721,excluded_non_primary,food_or_beverage,name matched /料理|食堂|レストラン|カフェ|喫茶|茶屋|料亭|割烹|菓子|菓寮|餅|豆腐|とうふ|納豆|漬物|パン|珈琲|コーヒー|ワイン|ビール|酒造|醤油|グリル|洋食|そば|うどん|寿司|鮨|焼肉|ラーメン|スイーツ|甘味|御すぐき|本舗|茶房|食文化|食事処/,,
0000003651,京都工芸繊維大学美術工芸資料館,キョウトコウゲイセンイダイガクビジュツコウゲイシリョウカン,교토공예섬유대학비주쓰공예자료관,official_kana_transliteration,auto_needs_review,京都市左京区,京都府京都市左京区松ケ崎橋上町,35.049482,135.781196,primary,museum_or_gallery,name matched /博物館|美術館|資料館|記念館|ミュージアム/,,
0000008203,京都宿泊所 白河院 庭園,シラカワイン テイエン,시라카와인 정원,official_kana_transliteration,auto_needs_review,京都市左京区,京都府京都市左京区岡崎法勝寺町16,35.013958,135.787682,excluded_non_primary,lodging_or_bathing,name matched /ホテル|旅館|民宿|ペンション|ロッジ|ゲストハウス|(^|[\s　])宿([\s　]|$)|小宿|お宿|宿泊所|青少年村|キャンプ場|温泉|足湯|スパ|spa|銭湯/,,
0000003733,京都府立陶板名画の庭,キョウトフリツトウバンメイガノニワ,교토부립토반메이가노니와,official_kana_transliteration,auto_needs_review,京都市左京区,京都府京都市左京区下鴨半木町,35.050663,135.765442,needs_review,ambiguous_facility,no high-confidence place or exclusion rule matched,,
0000009502,京都府立植物園,キョウトフリツショクブツエン,교토부립식물원,official_kana_transliteration,auto_needs_review,京都市左京区,京都府京都市左京区下鴨半木町,35.048744,135.762736,primary,nature_or_park,name matched /公園($|[\s　（(])|庭園($|[\s　（(])|植物園|動物園|水族館|渓谷|峡谷|竹林|遊歩道|哲学の道/,,
0000003736,京都コンサートホール,キョウトコンサートホール,교토콘사토호루,official_kana_transliteration,auto_needs_review,京都市左京区,京都府京都市左京区下鴨半木町44222,35.049972,135.766573,needs_review,ambiguous_facility,no high-confidence place or exclusion rule matched,,
0000009503,金地院,コンチイン,곤치인,curated_standard_translation,reviewed,京都市左京区,京都府京都市左京区南禅寺福地町,35.010350,135.790415,primary,religious_site,religious suffix confirmed by description,,
0000000159,熊野若王子神社,クマノニャクオウジジンジャ,쿠마노냐쿠오우지신사,official_kana_transliteration,auto_needs_review,京都市左京区,京都府京都市左京区若王子町2,35.015763,135.796305,primary,religious_site,name matched /寺|神社|神宮|天満宮|大社|地蔵|不動|観音|霊廟|墓所/,,
0000006472,ガーデンミュージアム比叡,ガーデンミュージアムヒエイ,가든뮤지엄히에이,official_kana_transliteration,auto_needs_review,京都市左京区,京都府京都市左京区修学院尺羅ケ谷四明ケ嶽4,35.064731,135.829031,primary,museum_or_gallery,name matched /博物館|美術館|資料館|記念館|ミュージアム/,,
0000003741,大原女に変身・着付け体験,オハラメニヘンシン・キツケタイケン,오하라메니헨신 키쓰케타이켄,official_kana_transliteration,auto_needs_review,京都市左京区,京都府京都市左京区大原来迎院町81-2 大原観光保勝会,35.119274,135.828932,excluded_non_primary,retail_or_rental_service,name matched /レンタル|貸衣装|着付け|変身|商店|ショップ|ショッピング|土産|専門店|工房|スタジオ|手創り体験|手作り体験|京あるき|サイクル|店($|[（(])/,,
0000007769,大原工房,オオハラコウボウ,오하라코보,official_kana_transliteration,auto_needs_review,京都市左京区,京都府京都市左京区大原草生町327,35.117811,135.825326,excluded_non_primary,retail_or_rental_service,name matched /レンタル|貸衣装|着付け|変身|商店|ショップ|ショッピング|土産|専門店|工房|スタジオ|手創り体験|手作り体験|京あるき|サイクル|店($|[（(])/,,
0000000161,法然院,ホウネンイン,호넨인,official_kana_transliteration,auto_needs_review,京都市左京区,京都府京都市左京区鹿ケ谷御所ノ段町30,35.023994,135.797417,primary,religious_site,religious suffix confirmed by description,,
0000008238,大本山南禅寺,ダイホンザンナンゼンジ,난젠지,curated_standard_translation,reviewed,京都市左京区,京都府京都市左京区南禅寺福地町,35.011253,135.793259,primary,religious_site,name matched /寺|神社|神宮|天満宮|大社|地蔵|不動|観音|霊廟|墓所/,,
0000000166,琵琶湖疏水,ビワコソスイ,비와코소스이,official_kana_transliteration,auto_needs_review,京都市左京区,京都府京都市左京区,35.012064,135.787636,primary,heritage_or_landmark,name matched /城|御所|離宮|旧宅|住宅|邸$|史跡|遺跡|古墳|町並み|街道|橋$|坂$|市場$|タワー|展望|映画村|劇場|能楽堂|歌舞練場|疏水|水路閣/,,
0000008687,百万遍さんの手づくり市,ヒャクマンベンサンノテヅクリイチ,햐쿠만벤산노테즈쿠리이치,official_kana_transliteration,auto_needs_review,京都市左京区,京都府京都市左京区田中門前町103 知恩寺境内,35.029876,135.780701,excluded_non_primary,time_limited_event,name matched /手づくり市|手作り市|骨董市|亀の市|天神さんの市|弘法さんの市|祭$|祭り|まつり|イベント|ライトアップ|大会$|行列$/,,
0000000170,インクライン,インクライン,인쿠라인,official_kana_transliteration,auto_needs_review,京都市左京区,京都府京都市左京区蹴上,35.007600,135.791000,needs_review,ambiguous_facility,no high-confidence place or exclusion rule matched,,
0000006130,細見美術館,ホソミビジュツカン,호소미미술관,official_kana_transliteration,auto_needs_review,京都市左京区,京都府京都市左京区岡崎最勝寺町44350,35.013873,135.779671,primary,museum_or_gallery,name matched /博物館|美術館|資料館|記念館|ミュージアム/,,
0000003193,阿弥陀寺（古知谷）,アミダジ,아미다지,official_kana_transliteration,auto_needs_review,京都市左京区,京都府京都市左京区大原古知平町83,35.138215,135.827926,primary,religious_site,name matched /寺|神社|神宮|天満宮|大社|地蔵|不動|観音|霊廟|墓所/,,
0000009467,京つけもの 大安,ダイヤス,다이야스,official_kana_transliteration,auto_needs_review,京都市左京区,京都府京都市左京区 平安神宮東,35.014669,135.785045,needs_review,ambiguous_facility,no high-confidence place or exclusion rule matched,,
0000000173,天授庵,テンジュアン,텐주안,curated_standard_translation,reviewed,京都市左京区,京都府京都市左京区南禅寺福地町,35.010789,135.792287,primary,religious_site,religious suffix confirmed by description,,
0000003953,匠斎庵,ショウサイアン,쇼사이안,official_kana_transliteration,auto_needs_review,京都市左京区,京都府京都市左京区鞍馬本町445,35.114331,135.773584,primary,heritage_or_landmark,historic-site suffix confirmed by description,,
0000000181,平安神宮,ヘイアンジングウ,헤이안신궁,curated_standard_translation,reviewed,京都市左京区,京都府京都市左京区岡崎西天王町97,35.015994,135.782427,primary,religious_site,name matched /寺|神社|神宮|天満宮|大社|地蔵|不動|観音|霊廟|墓所/,,
0000006090,叶 匠壽庵 京都茶室棟,カノウ ショウジュアン キョウトチャシツトウ,카노 쇼주안 교토차시쓰토,official_kana_transliteration,auto_needs_review,京都市左京区,京都府京都市左京区若王子町44228,35.015810,135.795983,needs_review,ambiguous_facility,no high-confidence place or exclusion rule matched,,
0000001108,南禅寺順正,ナンゼンジジュンセイ,난젠지준세이,official_kana_transliteration,auto_needs_review,京都市左京区,京都府京都市左京区南禅寺草川町60,35.011302,135.790070,excluded_non_primary,commercial_business,religious place token appears inside a commercial business name,,
0000009009,権兵衛 北山店,ゴンベエ キタヤマテン,곤베에 키타야마텐,official_kana_transliteration,auto_needs_review,京都市左京区,京都府京都市左京区下鴨南芝町16072,35.051667,135.768840,excluded_non_primary,retail_or_rental_service,name matched /レンタル|貸衣装|着付け|変身|商店|ショップ|ショッピング|土産|専門店|工房|スタジオ|手創り体験|手作り体験|京あるき|サイクル|店($|[（(])/,,
0000001110,おめん,オメン,오멘,official_kana_transliteration,auto_needs_review,京都市左京区,京都府京都市左京区浄土寺石橋町,35.026271,135.795001,needs_review,ambiguous_facility,no high-confidence place or exclusion rule matched,,
0000008740,茶室古香庵茶の湯体験,チャシツココウアンチャノユタイケン,차시쓰코코안차노유타이켄,official_kana_transliteration,auto_needs_review,京都市左京区,京都府京都市左京区岡崎最勝寺町6-3 細見美術館内,35.013921,135.779637,needs_review,ambiguous_facility,no high-confidence place or exclusion rule matched,,
0000001112,梁山泊,リョウザンパク,료잔파쿠,official_kana_transliteration,auto_needs_review,京都市左京区,京都府京都市左京区吉田泉殿町5,35.028396,135.777648,needs_review,ambiguous_facility,no high-confidence place or exclusion rule matched,,
0000009505,慈照寺（銀閣寺）,ジショウジ（ギンカクジ）,은각사(긴카쿠지),curated_standard_translation,reviewed,京都市左京区,京都府京都市左京区銀閣寺町2,35.027032,135.798208,primary,religious_site,name matched /寺|神社|神宮|天満宮|大社|地蔵|不動|観音|霊廟|墓所/,,
0000000183,聖護院,ショウゴイン,쇼고인,official_kana_transliteration,auto_needs_review,京都市左京区,京都府京都市左京区聖護院中町15,35.019180,135.780410,primary,heritage_or_landmark,historic-site suffix confirmed by description,,
0000009708,雍州路,ヨウシュウジ,요슈우지,official_kana_transliteration,auto_needs_review,京都市左京区,京都府京都市左京区鞍馬本町1074,35.114126,135.773258,excluded_non_primary,commercial_business,commercial operation confirmed by description,,
0000000185,吉田神社,ヨシダジンジャ,요시다신사,official_kana_transliteration,auto_needs_review,京都市左京区,京都府京都市左京区吉田神楽岡町30,35.025414,135.784754,primary,religious_site,name matched /寺|神社|神宮|天満宮|大社|地蔵|不動|観音|霊廟|墓所/,,
0000009044,井村美術館,イムラビジュツカン,이무라미술관,official_kana_transliteration,auto_needs_review,京都市左京区,京都府京都市左京区下鴨松原町29,35.035865,135.770856,primary,museum_or_gallery,name matched /博物館|美術館|資料館|記念館|ミュージアム/,,
0000000186,金戒光明寺,コンカイコウミョウジ,콘카이코묘지,official_kana_transliteration,auto_needs_review,京都市左京区,京都府京都市左京区黒谷町121,35.019664,135.788020,primary,religious_site,name matched /寺|神社|神宮|天満宮|大社|地蔵|不動|観音|霊廟|墓所/,,
0000008741,レンタサイクルえむじか出町柳店,レンタサイクルエムジカデマチヤナギテン,렌타사이쿠루에무지카데마치야나기텐,official_kana_transliteration,auto_needs_review,京都市左京区,京都府京都市左京区田中上柳町24 リヴィエール鴨東1階,35.030893,135.773203,excluded_non_primary,transport_or_convenience,name matched /タクシー|レンタカー|レンタサイクル|デリバリーサービス|鉄道案内所|観光案内所|インフォメーション|手荷物|キャリーサービス|サイクリングツアープロジェクト|バイクプール/,,
0000000247,音無しの滝,オトナシノタキ,오토나시노타키,official_kana_transliteration,auto_needs_review,京都市左京区,京都府京都市左京区,35.120751,135.839746,primary,nature_or_park,natural-feature suffix confirmed by description,,
0000006108,安本バイクプール／レンタサイクル,ヤスモトバイクプール／レンタサイクル,야스모토바이쿠푸루 렌타사이쿠루,official_kana_transliteration,auto_needs_review,京都市左京区,京都府京都市左京区川端通三条上ル法林寺門前町36,35.009598,135.772568,excluded_non_primary,transport_or_convenience,name matched /タクシー|レンタカー|レンタサイクル|デリバリーサービス|鉄道案内所|観光案内所|インフォメーション|手荷物|キャリーサービス|サイクリングツアープロジェクト|バイクプール/,,
0000000187,真如堂（真正極楽寺）,シンニョドウ（シンショウゴクラクジ）,신뇨도(신쇼고쿠라쿠지),curated_standard_translation,reviewed,京都市左京区,京都府京都市左京区浄土寺真如町82,35.021460,135.789268,primary,religious_site,name matched /寺|神社|神宮|天満宮|大社|地蔵|不動|観音|霊廟|墓所/,,
0000008428,大原観光保勝会,オオハラカンコウホショウカイ,오하라칸코호쇼카이,official_kana_transliteration,auto_needs_review,京都市左京区,京都府京都市左京区大原来迎院町29618,35.119274,135.828932,needs_review,ambiguous_facility,no high-confidence place or exclusion rule matched,,
0000003322,京都ハンディクラフトセンター,キョウトハンディクラフトセンター,교토한디쿠라후토센타,official_kana_transliteration,auto_needs_review,京都市左京区,京都府京都市左京区聖護院円頓美町17,35.017646,135.780237,excluded_non_primary,commercial_business,commercial operation confirmed by description,,
0000009466,聖護院八ッ橋総本店,ショウゴインヤツハシソウホンテン,쇼고인야쓰하시소혼텐,official_kana_transliteration,auto_needs_review,京都市左京区,京都府京都市左京区聖護院山王町6番地,35.018442,135.779114,excluded_non_primary,retail_or_rental_service,name matched /レンタル|貸衣装|着付け|変身|商店|ショップ|ショッピング|土産|専門店|工房|スタジオ|手創り体験|手作り体験|京あるき|サイクル|店($|[（(])/,,
0000000192,京都府立図書館,キョウトフリツトショカン,교토부립토쇼칸,official_kana_transliteration,auto_needs_review,京都市左京区,京都府京都市左京区岡崎成勝寺町,35.012984,135.781970,needs_review,ambiguous_facility,no high-confidence place or exclusion rule matched,,
0000008160,宝泉院,ホウセンイン,호센인,official_kana_transliteration,auto_needs_review,京都市左京区,京都府京都市左京区大原勝林院町187,35.121344,135.833983,primary,heritage_or_landmark,historic-site suffix confirmed by description,,
0000003523,京都ギリシアローマ美術館,キョウトギリシアローマビジュツカン,교토기리시아로마미술관,official_kana_transliteration,auto_needs_review,京都市左京区,京都府京都市左京区下鴨北園町1-72,35.048804,135.771489,primary,museum_or_gallery,name matched /博物館|美術館|資料館|記念館|ミュージアム/,,
0000008150,大原温泉,オオハラオンセン,오하라온센,official_kana_transliteration,auto_needs_review,京都市左京区,京都府京都市左京区大原,35.119393,135.833572,excluded_non_primary,lodging_or_bathing,name matched /ホテル|旅館|民宿|ペンション|ロッジ|ゲストハウス|(^|[\s　])宿([\s　]|$)|小宿|お宿|宿泊所|青少年村|キャンプ場|温泉|足湯|スパ|spa|銭湯/,,
0000003385,浄蓮華院,ジョウレンゲイン,조렌게인,official_kana_transliteration,auto_needs_review,京都市左京区,京都府京都市左京区大原来迎院町407,35.118840,135.836763,excluded_non_primary,commercial_business,commercial operation confirmed by description,,
0000009195,おみやげぎゃるり 楽楽,オミヤゲギャルリ ラクラク,오미야게갸루리 라쿠라쿠,official_kana_transliteration,auto_needs_review,京都市左京区,京都府京都市左京区鞍馬本町266,35.113923,135.773651,excluded_non_primary,commercial_business,commercial operation confirmed by description,,
0000003773,宝が池公園運動施設,タカラガイケコウエンウンドウシセツ,타카라가이케공원운도시세쓰,official_kana_transliteration,auto_needs_review,京都市左京区,京都府京都市左京区松ケ崎東池ノ内町,35.054617,135.774284,excluded_non_primary,administrative_or_sports_facility,name matched /体育館|運動場|競技場|武道センター|運動施設|府民ホール|運動公園|文化芸術会館|こども文化会館|国際交流会館|国際センター|コンベンション|会議場/,,
0000008439,里の駅大原,サトノエキオオハラ,사토노에키오하라,official_kana_transliteration,auto_needs_review,京都市左京区,京都府京都市左京区大原野村町1012番地,35.114224,135.823502,excluded_non_primary,commercial_business,commercial operation confirmed by description,,
0000003774,花背山村都市交流の森,ハナセサンソントシコウリュウノモリ,하나세산손토시코류우노모리,official_kana_transliteration,auto_needs_review,京都市左京区,京都府京都市左京区花脊八桝町250,35.219959,135.781687,primary,nature_or_park,natural-feature suffix confirmed by description,,
0000006831,kokoka京都市国際交流会館,キョウトシコクサイコウリュウカイカン,교토시코쿠사이코류우카이칸,official_kana_transliteration,auto_needs_review,京都市左京区,京都府京都市左京区粟田口鳥居町44228,35.010831,135.787672,excluded_non_primary,administrative_or_sports_facility,name matched /体育館|運動場|競技場|武道センター|運動施設|府民ホール|運動公園|文化芸術会館|こども文化会館|国際交流会館|国際センター|コンベンション|会議場/,,
0000003775,京都市野外活動施設「花背山の家」,キョウトシヤガイカツドウシセツ「ハナセヤマノイエ」,교토시야가이카쓰도시세쓰하나세야마노이에,official_kana_transliteration,auto_needs_review,京都市左京区,京都府京都市左京区花脊別所町399,35.172927,135.785837,needs_review,ambiguous_facility,no high-confidence place or exclusion rule matched,,
0000009196,一楽（雍州路別館）,イチラク,이치라쿠,official_kana_transliteration,auto_needs_review,京都市左京区,京都府京都市左京区鞍馬本町256,35.113944,135.773369,excluded_non_primary,commercial_business,commercial operation confirmed by description,,
0000000692,由岐神社,ユキジンジャ,유키신사,official_kana_transliteration,auto_needs_review,京都市左京区,京都府京都市左京区鞍馬本町1073,35.116258,135.771501,primary,religious_site,name matched /寺|神社|神宮|天満宮|大社|地蔵|不動|観音|霊廟|墓所/,,
0000006115,哲学の道,テツガクノミチ,철학의 길,curated_standard_translation,reviewed,京都市左京区,京都府京都市左京区,35.026922,135.795354,primary,nature_or_park,name matched /公園($|[\s　（(])|庭園($|[\s　（(])|植物園|動物園|水族館|渓谷|峡谷|竹林|遊歩道|哲学の道/,,
0000003383,南禅会館,ナンゼンカイカン,난젠카이칸,official_kana_transliteration,auto_needs_review,京都市左京区,京都府京都市左京区南禅寺福地町86,35.011493,135.790686,needs_review,ambiguous_facility,no high-confidence place or exclusion rule matched,,
0000008452,小丸屋住井 深草うちわ・京丸うちわ,コマルヤスミイ フカクサウチワ・キョウマルウチワ,코마루야스미이 후카쿠사우치와 교마루우치와,official_kana_transliteration,auto_needs_review,京都市左京区,京都府京都市左京区岡崎円勝寺町91-54,35.010811,135.783214,primary,district_or_street,named district confirmed by description,,
0000000694,奥の院魔王殿,オクノインマオウデン,오쿠노인마오우덴,official_kana_transliteration,auto_needs_review,京都市左京区,京都府京都市左京区鞍馬本町,35.121253,135.765853,needs_review,ambiguous_facility,no high-confidence place or exclusion rule matched,,
0000008172,重森三玲邸庭園美術館,シゲモリミレイテイテイエンビジュツカン,시게모리 미레이 저택 정원미술관,curated_standard_translation,reviewed,京都市左京区,京都府京都市左京区吉田上大路町34-22,35.024109,135.782162,primary,museum_or_gallery,name matched /博物館|美術館|資料館|記念館|ミュージアム/,,
0000000696,渡辺木の芽煮本舗,ワタナベキノメニホンポ,와타나베키노메니혼포,official_kana_transliteration,auto_needs_review,京都市左京区,京都府京都市左京区鞍馬本町248,35.113537,135.773152,excluded_non_primary,food_or_beverage,name matched /料理|食堂|レストラン|カフェ|喫茶|茶屋|料亭|割烹|菓子|菓寮|餅|豆腐|とうふ|納豆|漬物|パン|珈琲|コーヒー|ワイン|ビール|酒造|醤油|グリル|洋食|そば|うどん|寿司|鮨|焼肉|ラーメン|スイーツ|甘味|御すぐき|本舗|茶房|食文化|食事処/,,
0000006541,来迎院,ライゴウイン,라이고인,official_kana_transliteration,auto_needs_review,京都市左京区,京都府京都市左京区大原来迎院町537,35.118713,135.836987,needs_review,ambiguous_facility,no high-confidence place or exclusion rule matched,,
0000000700,花背,ハナセ,하나세,official_kana_transliteration,auto_needs_review,京都市左京区,京都府京都市左京区花脊,35.208038,135.775708,needs_review,ambiguous_facility,no high-confidence place or exclusion rule matched,,
0000009197,AYANOKOJI 岡崎本店,アヤノコウジ オカザキホンテン,아야노코지 오카자키혼텐,official_kana_transliteration,auto_needs_review,京都市左京区,京都府京都市左京区岡崎南御所町40-15,35.015343,135.784863,excluded_non_primary,retail_or_rental_service,name matched /レンタル|貸衣装|着付け|変身|商店|ショップ|ショッピング|土産|専門店|工房|スタジオ|手創り体験|手作り体験|京あるき|サイクル|店($|[（(])/,,
0000003370,南禅院,ナンゼンイン,난젠인,official_kana_transliteration,auto_needs_review,京都市左京区,京都府京都市左京区南禅寺福地町,35.010074,135.793714,primary,heritage_or_landmark,historic-site suffix confirmed by description,,
0000003353,無礙光院,ムゲコウイン,무게코인,official_kana_transliteration,auto_needs_review,京都市左京区,京都府京都市左京区高野清水町65,35.036748,135.777267,needs_review,ambiguous_facility,no high-confidence place or exclusion rule matched,,
0000000210,修学院離宮,シュウガクインリキュウ,슈우가쿠인리큐우,official_kana_transliteration,auto_needs_review,京都市左京区,京都府京都市左京区修学院藪添,35.053574,135.799639,primary,heritage_or_landmark,name matched /城|御所|離宮|旧宅|住宅|邸$|史跡|遺跡|古墳|町並み|街道|橋$|坂$|市場$|タワー|展望|映画村|劇場|能楽堂|歌舞練場|疏水|水路閣/,,
0000000209,曼殊院,マンシュイン,만슈인,official_kana_transliteration,auto_needs_review,京都市左京区,京都府京都市左京区一乗寺竹ノ内町42,35.048913,135.802943,primary,heritage_or_landmark,historic-site suffix confirmed by description,,
0000003464,賀茂御祖神社（下鴨神社）,カモミオヤジンジャ（シモガモジンジャ）,카모미오야신사(시모가모신사),official_kana_transliteration,auto_needs_review,京都市左京区,京都府京都市左京区下鴨泉川町,35.039196,135.773007,primary,religious_site,name matched /寺|神社|神宮|天満宮|大社|地蔵|不動|観音|霊廟|墓所/,,
0000000211,一乗寺下り松,イチジョウジサガリマツ,이치조지사가리마쓰,official_kana_transliteration,auto_needs_review,京都市左京区,京都府京都市左京区一乗寺,35.043894,135.793810,primary,religious_site,name matched /寺|神社|神宮|天満宮|大社|地蔵|不動|観音|霊廟|墓所/,,
0000000212,金福寺,コンプクジ,콘푸쿠지,official_kana_transliteration,auto_needs_review,京都市左京区,京都府京都市左京区一乗寺才形町20,35.042202,135.795182,primary,religious_site,name matched /寺|神社|神宮|天満宮|大社|地蔵|不動|観音|霊廟|墓所/,,
0000000213,狸谷山不動院,タヌキダニサンフドウイン,타누키다니산후도인,official_kana_transliteration,auto_needs_review,京都市左京区,京都府京都市左京区一乗寺松原町6,35.041082,135.802337,primary,religious_site,name matched /寺|神社|神宮|天満宮|大社|地蔵|不動|観音|霊廟|墓所/,,
0000000215,赤山禅院,セキザンゼンイン,세키잔젠인,official_kana_transliteration,auto_needs_review,京都市左京区,京都府京都市左京区修学院開根坊町18,35.056189,135.801649,primary,religious_site,religious suffix confirmed by description,,
0000003439,土井志ば漬本舗（志ば漬の里）,ドイシバヅケホンポ,도이시바즈케혼포,official_kana_transliteration,auto_needs_review,京都市左京区,京都府京都市左京区八瀬花尻町41番地,35.101595,135.824374,excluded_non_primary,food_or_beverage,name matched /料理|食堂|レストラン|カフェ|喫茶|茶屋|料亭|割烹|菓子|菓寮|餅|豆腐|とうふ|納豆|漬物|パン|珈琲|コーヒー|ワイン|ビール|酒造|醤油|グリル|洋食|そば|うどん|寿司|鮨|焼肉|ラーメン|スイーツ|甘味|御すぐき|本舗|茶房|食文化|食事処/,,
0000003323,もとしろ,モトシロ,모토시로,official_kana_transliteration,auto_needs_review,京都市左京区,京都府京都市左京区大原来迎院町400-3,35.120161,135.830189,needs_review,ambiguous_facility,no high-confidence place or exclusion rule matched,,
0000000218,雲母漬老舗「穂野出」,キララヅケ,키라라즈케,official_kana_transliteration,auto_needs_review,京都市左京区,京都府京都市左京区一乗寺谷田町,35.045468,135.794009,needs_review,ambiguous_facility,no high-confidence place or exclusion rule matched,,
0000000223,宝が池公園,タカラガイケコウエン,타카라가이케공원,official_kana_transliteration,auto_needs_review,京都市左京区,京都府京都市左京区上高野流田町他,35.057952,135.778921,primary,nature_or_park,name matched /公園($|[\s　（(])|庭園($|[\s　（(])|植物園|動物園|水族館|渓谷|峡谷|竹林|遊歩道|哲学の道/,,
0000003646,京都府立京都学・歴彩館,キョウトフリツキョウトガク・レキサイカン,교토부립교토가쿠 레키사이칸,official_kana_transliteration,auto_needs_review,京都市左京区,京都府京都市左京区下鴨半木町44225,35.048476,135.766882,needs_review,visitor_cultural_candidate,"visitor-facing facility, but hall/center names may mix museums, shops and public services",,
0000000226,三宅八幡宮,ミヤケハチマングウ,미야케하치만구우,official_kana_transliteration,auto_needs_review,京都市左京区,京都府京都市左京区上高野三宅町22,35.068359,135.794106,needs_review,ambiguous_facility,no high-confidence place or exclusion rule matched,,
0000000227,実相院門跡,ジッソウインモンゼキ,지소인몬제키,official_kana_transliteration,auto_needs_review,京都市左京区,京都府京都市左京区岩倉上蔵町121,35.079135,135.781507,needs_review,ambiguous_facility,no high-confidence place or exclusion rule matched,,
0000003639,泉屋博古館（住友コレクション）,センオクハクコカン（スミトモコレクション）,센오쿠하쿠코칸(스미토모코레쿠숀),official_kana_transliteration,auto_needs_review,京都市左京区,京都府京都市左京区鹿ケ谷下宮ノ前町24,35.017611,135.792790,needs_review,ambiguous_facility,no high-confidence place or exclusion rule matched,,
0000000265,貴船神社,キフネジンジャ,키후네신사,official_kana_transliteration,auto_needs_review,京都市左京区,京都府京都市左京区鞍馬貴船町180,35.121962,135.762964,primary,religious_site,name matched /寺|神社|神宮|天満宮|大社|地蔵|不動|観音|霊廟|墓所/,,
0000003416,京都市動物園,キョウトシドウブツエン,교토시 동물원,curated_standard_translation,reviewed,京都市左京区,京都府京都市左京区岡崎法勝寺町 岡崎公園内,35.012695,135.786113,primary,nature_or_park,name matched /公園($|[\s　（(])|庭園($|[\s　（(])|植物園|動物園|水族館|渓谷|峡谷|竹林|遊歩道|哲学の道/,,
0000000268,株式会社川島織物セルコン 川島織物文化館,カワシマオリモノセルコン カワシマオリモノブンカカン,카와시마오리모노세루콘 카와시마오리모노분카칸,official_kana_transliteration,auto_needs_review,京都市左京区,京都府京都市左京区静市市原町265,35.085889,135.759429,needs_review,visitor_cultural_candidate,"visitor-facing facility, but hall/center names may mix museums, shops and public services",,
0000000229,圓通寺,エンツウジ,엔쓰지,curated_standard_translation,reviewed,京都市左京区,京都府京都市左京区岩倉幡枝町389,35.064410,135.768485,primary,religious_site,name matched /寺|神社|神宮|天満宮|大社|地蔵|不動|観音|霊廟|墓所/,,
0000000230,妙満寺,ミョウマンジ,묘만지,official_kana_transliteration,auto_needs_review,京都市左京区,京都府京都市左京区岩倉幡枝町91,35.067615,135.774592,primary,religious_site,name matched /寺|神社|神宮|天満宮|大社|地蔵|不動|観音|霊廟|墓所/,,
0000003705,京都観世会館／能・狂言,キョウトカンゼカイカン／ノウ・キョウゲン,교토칸제카이칸 노 교겐,official_kana_transliteration,auto_needs_review,京都市左京区,京都府京都市左京区岡崎円勝寺町44,35.011312,135.781499,needs_review,ambiguous_facility,no high-confidence place or exclusion rule matched,,
0000003647,京都徳力版画館,キョウトトクリキハンガカン,교토토쿠리키한가칸,official_kana_transliteration,auto_needs_review,京都市左京区,京都府京都市左京区聖護院蓮華蔵町33,35.016352,135.775142,excluded_non_primary,commercial_business,commercial operation confirmed by description,,
0000001067,開晴亭,カイセイテイ,카이세이테이,official_kana_transliteration,auto_needs_review,京都市左京区,京都府京都市左京区下鴨前萩町44324,35.051153,135.767731,excluded_non_primary,commercial_business,commercial operation confirmed by description,,
0000003648,京都大学総合博物館,キョウトダイガクソウゴウハクブツカン,교토대학소고박물관,official_kana_transliteration,auto_needs_review,京都市左京区,京都府京都市左京区吉田本町,35.027257,135.779226,primary,museum_or_gallery,name matched /博物館|美術館|資料館|記念館|ミュージアム/,,
0000000236,蓮華寺,レンゲジ,렌게지,official_kana_transliteration,auto_needs_review,京都市左京区,京都府京都市左京区上高野八幡町,35.064072,135.800017,primary,religious_site,name matched /寺|神社|神宮|天満宮|大社|地蔵|不動|観音|霊廟|墓所/,,
0000000237,三千院,サンゼンイン,산젠인,curated_standard_translation,reviewed,京都市左京区,京都府京都市左京区大原来迎院町540,35.119711,135.834337,primary,religious_site,religious suffix confirmed by description,,
0000000238,勝林院,ショウリンイン,쇼린인,official_kana_transliteration,auto_needs_review,京都市左京区,京都府京都市左京区大原勝林院町187,35.121532,135.834564,needs_review,ambiguous_facility,no high-confidence place or exclusion rule matched,,
0000000240,実光院,ジッコウイン,지코인,official_kana_transliteration,auto_needs_review,京都市左京区,京都府京都市左京区大原勝林院町187,35.120583,135.833958,primary,heritage_or_landmark,historic-site suffix confirmed by description,,
0000001106,旅館八千代,リョカンヤチヨ,료칸야치요,official_kana_transliteration,auto_needs_review,京都市左京区,京都府京都市左京区南禅寺福地町34,35.011016,135.788898,excluded_non_primary,lodging_or_bathing,name matched /ホテル|旅館|民宿|ペンション|ロッジ|ゲストハウス|(^|[\s　])宿([\s　]|$)|小宿|お宿|宿泊所|青少年村|キャンプ場|温泉|足湯|スパ|spa|銭湯/,,
0000000242,寂光院,ジャッコウイン,자코인,official_kana_transliteration,auto_needs_review,京都市左京区,京都府京都市左京区大原草生町676,35.124111,135.821046,primary,religious_site,religious suffix confirmed by description,,
0000003637,藤井斉成会有鄰館,フジイサイセイカイユウリンカン,후지이사이세이카이유우린칸,official_kana_transliteration,auto_needs_review,京都市左京区,京都府京都市左京区岡崎円勝寺町44,35.011714,135.781271,needs_review,visitor_cultural_candidate,"visitor-facing facility, but hall/center names may mix museums, shops and public services",,
0000000245,芹生,セリョウ,세료,official_kana_transliteration,auto_needs_review,京都市左京区,京都府京都市左京区大原勝林院町,35.119398,135.833554,excluded_non_primary,commercial_business,commercial operation confirmed by description,,
0000003635,琵琶湖疏水記念館,ビワコソスイキネンカン,비와코소스이기념관,official_kana_transliteration,auto_needs_review,京都市左京区,京都府京都市左京区南禅寺草川町17,35.011952,135.788207,primary,museum_or_gallery,name matched /博物館|美術館|資料館|記念館|ミュージアム/,,
0000003527,京都伝統産業ミュージアム,キョウトデントウサンギョウミュージアム,교토덴토산교뮤지엄,official_kana_transliteration,auto_needs_review,京都市左京区,京都府京都市左京区岡崎成勝寺町9-1 京都市勧業館みやこめっせB1階,35.013061,135.780961,primary,museum_or_gallery,name matched /博物館|美術館|資料館|記念館|ミュージアム/,,
0000003634,野村美術館,ノムラビジュツカン,노무라미술관,official_kana_transliteration,auto_needs_review,京都市左京区,京都府京都市左京区南禅寺下河原町61,35.012929,135.793350,primary,museum_or_gallery,name matched /博物館|美術館|資料館|記念館|ミュージアム/,,
0000001117,山ばな平八茶屋,ヤマバナヘイハチヂャヤ,야마바나헤이하치지야,official_kana_transliteration,auto_needs_review,京都市左京区,京都府京都市左京区山端川岸町44409,35.054045,135.791091,excluded_non_primary,food_or_beverage,name matched /料理|食堂|レストラン|カフェ|喫茶|茶屋|料亭|割烹|菓子|菓寮|餅|豆腐|とうふ|納豆|漬物|パン|珈琲|コーヒー|ワイン|ビール|酒造|醤油|グリル|洋食|そば|うどん|寿司|鮨|焼肉|ラーメン|スイーツ|甘味|御すぐき|本舗|茶房|食文化|食事処/,,
0000000065,糺ノ森,タダスノモリ,타다스노모리,official_kana_transliteration,auto_needs_review,京都市左京区,京都府京都市左京区下鴨泉川町59,35.035768,135.772078,needs_review,ambiguous_facility,no high-confidence place or exclusion rule matched,,
0000003163,京都市百井青少年村,キョウトシモモイセイショウネンムラ,교토시모모이세이쇼넨무라,official_kana_transliteration,auto_needs_review,京都市左京区,京都府京都市左京区大原百井町356,35.161883,135.802002,excluded_non_primary,lodging_or_bathing,name matched /ホテル|旅館|民宿|ペンション|ロッジ|ゲストハウス|(^|[\s　])宿([\s　]|$)|小宿|お宿|宿泊所|青少年村|キャンプ場|温泉|足湯|スパ|spa|銭湯/,,
0000000267,小町寺（補陀洛寺）,コマチデラ（フダラクジ）,코마치데라(후다라쿠지),official_kana_transliteration,auto_needs_review,京都市左京区,京都府京都市左京区静市市原町1140,35.085396,135.761813,primary,religious_site,name matched /寺|神社|神宮|天満宮|大社|地蔵|不動|観音|霊廟|墓所/,,
0000003645,野仏庵,ノボトケアン,노보토케안,official_kana_transliteration,auto_needs_review,京都市左京区,京都府京都市左京区一乗寺葉山町（詩仙堂前）,35.044301,135.797235,needs_review,ambiguous_facility,no high-confidence place or exclusion rule matched,,
0000003644,京都民芸資料館,キョウトミンゲイシリョウカン,교토민게이자료관,official_kana_transliteration,auto_needs_review,京都市左京区,京都府京都市左京区岩倉木野町340番地,35.071528,135.777761,primary,museum_or_gallery,name matched /博物館|美術館|資料館|記念館|ミュージアム/,,
0000003643,白沙村荘橋本関雪記念館,ハクサソンソウハシモトカンセツキネンカン,하쿠사손소하시모토칸세쓰기념관,official_kana_transliteration,auto_needs_review,京都市左京区,京都府京都市左京区浄土寺石橋町37,35.027326,135.793701,primary,museum_or_gallery,name matched /博物館|美術館|資料館|記念館|ミュージアム/,,
0000000014,京都造形芸術大学芸術館,キョウトゾウケイゲイジュツダイガクゲイジュツカン,교토조케이게이주쓰대학게이주쓰칸,official_kana_transliteration,auto_needs_review,京都市左京区,京都府京都市左京区北白川瓜生山町2-116,35.037429,135.792270,needs_review,visitor_cultural_candidate,"visitor-facing facility, but hall/center names may mix museums, shops and public services",,
0000000071,加茂みたらし茶屋,カモミタラシヂャヤ,카모미타라시지야,official_kana_transliteration,auto_needs_review,京都市左京区,京都府京都市左京区下鴨松ノ木町,35.039732,135.770752,excluded_non_primary,food_or_beverage,name matched /料理|食堂|レストラン|カフェ|喫茶|茶屋|料亭|割烹|菓子|菓寮|餅|豆腐|とうふ|納豆|漬物|パン|珈琲|コーヒー|ワイン|ビール|酒造|醤油|グリル|洋食|そば|うどん|寿司|鮨|焼肉|ラーメン|スイーツ|甘味|御すぐき|本舗|茶房|食文化|食事処/,,
0000003925,菊水,キクスイ,키쿠스이,official_kana_transliteration,auto_needs_review,京都市左京区,京都府京都市左京区南禅寺福地町31番地,35.010461,135.789206,excluded_non_primary,commercial_business,commercial operation confirmed by description,,
0000003926,京の鳥どころ八起庵本店,キョウノトリドコロハチキアンホンテン,교노토리도코로하치키안혼텐,official_kana_transliteration,auto_needs_review,京都市左京区,京都府京都市左京区川端丸太町上ル東丸太町8,35.017822,135.772465,excluded_non_primary,retail_or_rental_service,name matched /レンタル|貸衣装|着付け|変身|商店|ショップ|ショッピング|土産|専門店|工房|スタジオ|手創り体験|手作り体験|京あるき|サイクル|店($|[（(])/,,
0000008738,壬生温泉 はなの湯,ミブオンセン ハナノユ,미부온센 하나노유,official_kana_transliteration,auto_needs_review,京都市中京区,京都府京都市中京区壬生松原町44270,34.999628,135.742549,excluded_non_primary,lodging_or_bathing,name matched /ホテル|旅館|民宿|ペンション|ロッジ|ゲストハウス|(^|[\s　])宿([\s　]|$)|小宿|お宿|宿泊所|青少年村|キャンプ場|温泉|足湯|スパ|spa|銭湯/,,
0000000035,六角堂（紫雲山頂法寺）,ロッカクドウ（シウンザンチョウホウジ）,로카쿠도(시운잔초호지),official_kana_transliteration,auto_needs_review,京都市中京区,京都府京都市中京区六角通東洞院西入ル堂之前町,35.007665,135.760254,primary,religious_site,name matched /寺|神社|神宮|天満宮|大社|地蔵|不動|観音|霊廟|墓所/,,
0000006132,井筒八ッ橋本舗 京極一番街－南錦小路－,イヅツヤツハシホンポ キョウゴクイチバンガイ－ミナミニシキコウジ－,이즈쓰야쓰하시혼포 교고쿠이치반가이미나미니시키코지,official_kana_transliteration,auto_needs_review,京都市中京区,京都府京都市中京区寺町通錦下ル,35.004085,135.766664,excluded_non_primary,food_or_beverage,name matched /料理|食堂|レストラン|カフェ|喫茶|茶屋|料亭|割烹|菓子|菓寮|餅|豆腐|とうふ|納豆|漬物|パン|珈琲|コーヒー|ワイン|ビール|酒造|醤油|グリル|洋食|そば|うどん|寿司|鮨|焼肉|ラーメン|スイーツ|甘味|御すぐき|本舗|茶房|食文化|食事処/,,
0000003716,小川家住宅（二條陣屋）,オガワケジュウタク（ニジョウジンヤ）,오가와케주택(니조진야),official_kana_transliteration,auto_needs_review,京都市中京区,京都府京都市中京区大宮通御池下ル三坊大宮町137,35.010362,135.748500,primary,heritage_or_landmark,name matched /城|御所|離宮|旧宅|住宅|邸$|史跡|遺跡|古墳|町並み|街道|橋$|坂$|市場$|タワー|展望|映画村|劇場|能楽堂|歌舞練場|疏水|水路閣/,,
0000004054,二条城駐車場,ニジョウジョウチュウシャジョウ,니조조추우샤조,official_kana_transliteration,auto_needs_review,京都市中京区,京都府京都市中京区二条通堀川西入二条城町541,35.013259,135.751458,excluded_non_primary,parking,name matched /駐車場|パーキング|くるっとパーク/,,
0000000036,本能寺,ホンノウジ,혼노지,official_kana_transliteration,auto_needs_review,京都市中京区,京都府京都市中京区寺町通御池下ル下本能寺前町522,35.010297,135.768319,primary,religious_site,name matched /寺|神社|神宮|天満宮|大社|地蔵|不動|観音|霊廟|墓所/,,
0000008665,古典の日記念 京都市平安京創生館,コテンノヒキネン キョウトシヘイアンキョウソウセイカン,코텐노히키넨 교토시헤이안교소세이칸,official_kana_transliteration,auto_needs_review,京都市中京区,京都府京都市中京区丸太町通七本松西入 京都市生涯学習総合センター内,35.018940,135.738312,needs_review,visitor_cultural_candidate,"visitor-facing facility, but hall/center names may mix museums, shops and public services",,
0000003256,京都鶴屋 鶴壽庵,キョウトツルヤ カクジュアン,교토쓰루야 카쿠주안,official_kana_transliteration,auto_needs_review,京都市中京区,京都府京都市中京区坊城通四条下ル壬生梛ノ宮町24,35.002273,135.744304,excluded_non_primary,commercial_business,commercial operation confirmed by description,,
0000006434,石長松菊園,イシチョウショウギクエン,이시초쇼기쿠엔,official_kana_transliteration,auto_needs_review,京都市中京区,京都府京都市中京区河原町竹屋町東入ル,35.015383,135.770152,needs_review,ambiguous_facility,no high-confidence place or exclusion rule matched,,
0000003937,豆水楼 木屋町店,トウスイロウ キヤマチテン,토스이로 키야마치텐,official_kana_transliteration,auto_needs_review,京都市中京区,京都府京都市中京区木屋町通三条上ル上大阪町517-3,35.010298,135.771126,excluded_non_primary,retail_or_rental_service,name matched /レンタル|貸衣装|着付け|変身|商店|ショップ|ショッピング|土産|専門店|工房|スタジオ|手創り体験|手作り体験|京あるき|サイクル|店($|[（(])/,,
0000006433,お宿いしちょう,オヤドイシチョウ,오야도이시초,official_kana_transliteration,auto_needs_review,京都市中京区,京都府京都市中京区河原町竹屋町東入ル,35.015702,135.770277,excluded_non_primary,lodging_or_bathing,name matched /ホテル|旅館|民宿|ペンション|ロッジ|ゲストハウス|(^|[\s　])宿([\s　]|$)|小宿|お宿|宿泊所|青少年村|キャンプ場|温泉|足湯|スパ|spa|銭湯/,,
0000003255,百足屋本店,ムカデヤホンテン,무카데야혼텐,official_kana_transliteration,auto_needs_review,京都市中京区,京都府京都市中京区新町通錦小路上ル百足屋町381,35.005667,135.756573,excluded_non_primary,retail_or_rental_service,name matched /レンタル|貸衣装|着付け|変身|商店|ショップ|ショッピング|土産|専門店|工房|スタジオ|手創り体験|手作り体験|京あるき|サイクル|店($|[（(])/,,
0000006462,新選組 壬生屯所遺跡（八木家）,シンセングミ ミブトンショイセキ（ヤギケ）,신센구미 미부톤쇼이세키(야기케),official_kana_transliteration,auto_needs_review,京都市中京区,京都府京都市中京区壬生梛ノ宮町24,35.002251,135.744045,primary,heritage_or_landmark,name matched /城|御所|離宮|旧宅|住宅|邸$|史跡|遺跡|古墳|町並み|街道|橋$|坂$|市場$|タワー|展望|映画村|劇場|能楽堂|歌舞練場|疏水|水路閣/,,
0000003941,花遊小路江戸川,カユウコウジエドガワ,카유우코지에도가와,official_kana_transliteration,auto_needs_review,京都市中京区,京都府京都市中京区新京極通四条上ル中之町565 ハレの日花遊小路1階,35.004055,135.767820,excluded_non_primary,commercial_business,commercial operation confirmed by description,,
0000006088,本家尾張屋,ホンケオワリヤ,혼케오와리야,official_kana_transliteration,auto_needs_review,京都市中京区,京都府京都市中京区車屋町通二条下ル,35.012804,135.760122,excluded_non_primary,commercial_business,commercial operation confirmed by description,,
0000003258,めなみ,メナミ,메나미,official_kana_transliteration,auto_needs_review,京都市中京区,京都府京都市中京区木屋町通三条上ル中島町96 三条木屋町ビルII 1階,35.009202,135.770556,excluded_non_primary,commercial_business,commercial operation confirmed by description,,
0000009180,雪梅花 菜根譚,シュエメイファ サイコンタン,슈에메이파 사이콘탄,official_kana_transliteration,auto_needs_review,京都市中京区,京都府京都市中京区柳馬場通蛸薬師上る井筒屋町417,35.006614,135.763922,excluded_non_primary,commercial_business,commercial operation confirmed by description,,
0000001084,三嶋亭,ミシマテイ,미시마테이,official_kana_transliteration,auto_needs_review,京都市中京区,京都府京都市中京区寺町通三条角,35.008441,135.767058,needs_review,ambiguous_facility,no high-confidence place or exclusion rule matched,,
0000007752,京料理 にしむら,キョウリョウリニシムラ,교료리니시무라,official_kana_transliteration,auto_needs_review,京都市中京区,京都府京都市中京区六角通高倉西入,35.007505,135.762328,excluded_non_primary,food_or_beverage,name matched /料理|食堂|レストラン|カフェ|喫茶|茶屋|料亭|割烹|菓子|菓寮|餅|豆腐|とうふ|納豆|漬物|パン|珈琲|コーヒー|ワイン|ビール|酒造|醤油|グリル|洋食|そば|うどん|寿司|鮨|焼肉|ラーメン|スイーツ|甘味|御すぐき|本舗|茶房|食文化|食事処/,,
0000001091,丸太町十二段家,マルタマチジュウニダンヤ,마루타마치주우니단야,official_kana_transliteration,auto_needs_review,京都市中京区,京都府京都市中京区丸太町通室町東入ル,35.017259,135.758557,needs_review,ambiguous_facility,no high-confidence place or exclusion rule matched,,
0000008553,八幡さんのおもしろ市,ハチマンサンノオモシロイチ,하치만산노오모시로이치,official_kana_transliteration,auto_needs_review,京都市中京区,京都府京都市中京区高倉通御池南入る亀甲屋町596の1,35.010519,135.762641,needs_review,ambiguous_facility,no high-confidence place or exclusion rule matched,,
0000000042,イノダコーヒ本店,イノダコーヒホンテン,이노다코히혼텐,official_kana_transliteration,auto_needs_review,京都市中京区,京都府京都市中京区堺町通三条下ル道祐町140,35.008188,135.763056,excluded_non_primary,retail_or_rental_service,name matched /レンタル|貸衣装|着付け|変身|商店|ショップ|ショッピング|土産|専門店|工房|スタジオ|手創り体験|手作り体験|京あるき|サイクル|店($|[（(])/,,
0000007555,花園大学歴史博物館,ハナゾノダイガクレキシハクブツカン,하나조노대학역사박물관,official_kana_transliteration,auto_needs_review,京都市中京区,京都府京都市中京区西ノ京壺ノ内町44409,35.017223,135.726518,primary,museum_or_gallery,name matched /博物館|美術館|資料館|記念館|ミュージアム/,,
0000000045,新京極,シンキョウゴク,신교고쿠,official_kana_transliteration,auto_needs_review,京都市中京区,京都府京都市中京区,35.005785,135.767249,primary,district_or_street,named district confirmed by description,,
0000008179,京都伝統工芸館,キョウトデントウコウゲイカン,교토덴토공예칸,official_kana_transliteration,auto_needs_review,京都市中京区,京都府京都市中京区烏丸三条上ル,35.009034,135.759408,needs_review,visitor_cultural_candidate,"visitor-facing facility, but hall/center names may mix museums, shops and public services",,
0000000062,神泉苑（真言宗寺院）,シンセンエン,신센엔,official_kana_transliteration,auto_needs_review,京都市中京区,京都府京都市中京区御池通神泉苑町東入ル門前町166,35.011528,135.748100,primary,religious_site,name matched /寺|神社|神宮|天満宮|大社|地蔵|不動|観音|霊廟|墓所/,,
0000009482,くろちく天正館 木目込体験コーナー,クロチクテンショウカン キメコミタイケンコーナー,쿠로치쿠텐쇼칸 키메코미타이켄코나,official_kana_transliteration,auto_needs_review,京都市中京区,京都府京都市中京区新町通錦小路上ル百足屋町380,35.005775,135.756399,excluded_non_primary,commercial_business,commercial operation confirmed by description,,
0000000030,四条河原町,シジョウカワラマチ,시조카와라마치,official_kana_transliteration,auto_needs_review,京都市中京区,京都府京都市中京区四条河原町,35.003781,135.769306,primary,district_or_street,named district confirmed by description,,
0000007756,o・mo・ya 東洞院,オモヤ ヒガシノトウイン,오모야 히가시노토인,official_kana_transliteration,auto_needs_review,京都市中京区,京都府京都市中京区東洞院六角下ル御射山町283,35.006429,135.760746,excluded_non_primary,commercial_business,commercial operation confirmed by description,,
0000003315,ギャラリーマロニエ,ギャラリーマロニエ,갸라리마로니에,official_kana_transliteration,auto_needs_review,京都市中京区,京都府京都市中京区河原町通四条上ル塩屋町332,35.005559,135.769455,excluded_non_primary,commercial_business,commercial operation confirmed by description,,
0000006460,和詩倶楽部,ワシクラブ,와시쿠라부,official_kana_transliteration,auto_needs_review,京都市中京区,京都府京都市中京区油小路通二条上ル薬屋町593,35.014172,135.753297,needs_review,ambiguous_facility,no high-confidence place or exclusion rule matched,,
0000000033,三条大橋,サンジョウオオハシ,산조오하시,official_kana_transliteration,auto_needs_review,京都市中京区,京都府京都市中京区,35.009049,135.771790,primary,heritage_or_landmark,name matched /城|御所|離宮|旧宅|住宅|邸$|史跡|遺跡|古墳|町並み|街道|橋$|坂$|市場$|タワー|展望|映画村|劇場|能楽堂|歌舞練場|疏水|水路閣/,,
0000008180,京都便利堂（本店仮店舗）,キョウトベンリドウ,교토벤리도,official_kana_transliteration,auto_needs_review,京都市中京区,京都府京都市中京区新町通竹屋町下ル弁財天町302番地,35.015439,135.756439,needs_review,ambiguous_facility,no high-confidence place or exclusion rule matched,,
0000000032,高瀬川（一之船入跡）,タカセガワ,타카세가와,official_kana_transliteration,auto_needs_review,京都市中京区,京都府京都市中京区,35.012336,135.770470,needs_review,ambiguous_facility,no high-confidence place or exclusion rule matched,,
0000004064,御池地下駐車場,オイケチカチュウシャジョウ,오이케치카추우샤조,official_kana_transliteration,auto_needs_review,京都市中京区,京都府京都市中京区御池通木屋町通先（出入口）～麩屋町（入口）～間之町通（出入口）の間地下1・2階,35.010873,135.766589,excluded_non_primary,parking,name matched /駐車場|パーキング|くるっとパーク/,,
0000000047,錦市場,ニシキイチバ,니시키시장,curated_standard_translation,reviewed,京都市中京区,京都府京都市中京区,35.005109,135.766809,primary,heritage_or_landmark,name matched /城|御所|離宮|旧宅|住宅|邸$|史跡|遺跡|古墳|町並み|街道|橋$|坂$|市場$|タワー|展望|映画村|劇場|能楽堂|歌舞練場|疏水|水路閣/,,
0000008212,元離宮二条城 特別名勝二の丸庭園,モトリキュウニジョウジョウ トクベツメイショウニノマルテイエン,모토리큐우니조조 토쿠베쓰메이쇼니노마루정원,official_kana_transliteration,auto_needs_review,京都市中京区,京都府京都市中京区二条通堀川西入二条城町541,35.014239,135.748221,excluded_component,child_record_of_same_place,same coordinate/address and name begins with parent place: 元離宮二条城,0000003459,元離宮二条城
0000003598,島津製作所 創業記念資料館,シマヅセイサクショ ソウギョウキネンシリョウカン,시마즈세이사쿠쇼 소교키넨자료관,official_kana_transliteration,auto_needs_review,京都市中京区,京都府京都市中京区木屋町二条南,35.012903,135.770242,primary,museum_or_gallery,name matched /博物館|美術館|資料館|記念館|ミュージアム/,,
0000006473,大西清右衛門美術館,オオニシセイウエモンビジュツカン,오니시세이우에몬미술관,official_kana_transliteration,auto_needs_review,京都市中京区,京都府京都市中京区三条通新町西入ル釜座町18-1,35.008379,135.755757,primary,museum_or_gallery,name matched /博物館|美術館|資料館|記念館|ミュージアム/,,
0000000048,先斗町,ポントチョウ,폰토초,official_kana_transliteration,auto_needs_review,京都市中京区,京都府京都市中京区,35.005104,135.771130,primary,district_or_street,named district confirmed by description,,
0000008732,spa TRINITE,スパ・トリニテ,스파 토리니테,official_kana_transliteration,auto_needs_review,京都市中京区,京都府京都市中京区烏丸通三条下ル饅頭屋町604 ホテルモントレ京都13階,35.007989,135.759345,excluded_non_primary,lodging_or_bathing,name matched /ホテル|旅館|民宿|ペンション|ロッジ|ゲストハウス|(^|[\s　])宿([\s　]|$)|小宿|お宿|宿泊所|青少年村|キャンプ場|温泉|足湯|スパ|spa|銭湯/,,
0000003599,壬生寺歴史資料室,ミブデラレキシシリョウシツ,미부데라역사시료시쓰,official_kana_transliteration,auto_needs_review,京都市中京区,京都府京都市中京区坊城通仏光寺上ル 壬生寺阿弥陀堂内,35.001662,135.743964,primary,religious_site,name matched /寺|神社|神宮|天満宮|大社|地蔵|不動|観音|霊廟|墓所/,,
0000007794,京菓子司よし廣,キョウガシツカサヨシヒロ,교가시쓰카사요시히로,official_kana_transliteration,auto_needs_review,京都市中京区,京都府京都市中京区西ノ京東月光町22,35.010324,135.738745,excluded_non_primary,food_or_beverage,name matched /料理|食堂|レストラン|カフェ|喫茶|茶屋|料亭|割烹|菓子|菓寮|餅|豆腐|とうふ|納豆|漬物|パン|珈琲|コーヒー|ワイン|ビール|酒造|醤油|グリル|洋食|そば|うどん|寿司|鮨|焼肉|ラーメン|スイーツ|甘味|御すぐき|本舗|茶房|食文化|食事処/,,
0000000006,壬生寺,ミブデラ,미부데라,official_kana_transliteration,auto_needs_review,京都市中京区,京都府京都市中京区坊城通仏光寺上ル,35.001650,135.743326,primary,religious_site,name matched /寺|神社|神宮|天満宮|大社|地蔵|不動|観音|霊廟|墓所/,,
0000009478,わくわく館（ワックジャパン）,ワクワクカン（ワックジャパン）,와쿠와쿠칸(와쿠자판),official_kana_transliteration,auto_needs_review,京都市中京区,京都府京都市中京区高倉通二条上ル天守町761,35.014538,135.762587,excluded_non_primary,food_or_beverage,name matched /料理|食堂|レストラン|カフェ|喫茶|茶屋|料亭|割烹|菓子|菓寮|餅|豆腐|とうふ|納豆|漬物|パン|珈琲|コーヒー|ワイン|ビール|酒造|醤油|グリル|洋食|そば|うどん|寿司|鮨|焼肉|ラーメン|スイーツ|甘味|御すぐき|本舗|茶房|食文化|食事処/,,
0000003434,堀野記念館,ホリノキネンカン,호리노기념관,official_kana_transliteration,auto_needs_review,京都市中京区,京都府京都市中京区堺町通二条上ル亀屋町172,35.014090,135.763087,primary,museum_or_gallery,name matched /博物館|美術館|資料館|記念館|ミュージアム/,,
0000009179,フレンチレストラン シェモア,フレンチレストラン シェモア,후렌치레스토란 셰모아,official_kana_transliteration,auto_needs_review,京都市中京区,京都府京都市中京区御幸町通御池上る亀屋町376,35.011242,135.766186,excluded_non_primary,food_or_beverage,name matched /料理|食堂|レストラン|カフェ|喫茶|茶屋|料亭|割烹|菓子|菓寮|餅|豆腐|とうふ|納豆|漬物|パン|珈琲|コーヒー|ワイン|ビール|酒造|醤油|グリル|洋食|そば|うどん|寿司|鮨|焼肉|ラーメン|スイーツ|甘味|御すぐき|本舗|茶房|食文化|食事処/,,
0000003478,京友禅体験工房丸益西村屋,キョウユウゼンタイケンコウボウマルマスニシムラヤ,교유우젠타이켄코보마루마스니시무라야,official_kana_transliteration,auto_needs_review,京都市中京区,京都府京都市中京区小川通御池南入ル,35.010477,135.754316,excluded_non_primary,retail_or_rental_service,name matched /レンタル|貸衣装|着付け|変身|商店|ショップ|ショッピング|土産|専門店|工房|スタジオ|手創り体験|手作り体験|京あるき|サイクル|店($|[（(])/,,
0000009166,香老舗 林龍昇堂,コウシニセ ハヤシリュウショウドウ,코시니세 하야시류우쇼도,official_kana_transliteration,auto_needs_review,京都市中京区,京都府京都市中京区三条通堀川東入橋東詰町15,35.008640,135.752867,needs_review,ambiguous_facility,no high-confidence place or exclusion rule matched,,
0000000051,永楽屋室町店,エイラクヤムロマチテン,에이라쿠야무로마치텐,official_kana_transliteration,auto_needs_review,京都市中京区,京都府京都市中京区室町通蛸薬師上る西側,35.006304,135.757924,excluded_non_primary,retail_or_rental_service,name matched /レンタル|貸衣装|着付け|変身|商店|ショップ|ショッピング|土産|専門店|工房|スタジオ|手創り体験|手作り体験|京あるき|サイクル|店($|[（(])/,,
0000007763,まんざら本店,マンザラホンテン,만자라혼텐,official_kana_transliteration,auto_needs_review,京都市中京区,京都府京都市中京区河原町通夷川上ル指物町321,35.015236,135.769109,excluded_non_primary,retail_or_rental_service,name matched /レンタル|貸衣装|着付け|変身|商店|ショップ|ショッピング|土産|専門店|工房|スタジオ|手創り体験|手作り体験|京あるき|サイクル|店($|[（(])/,,
0000003459,元離宮二条城,モトリキュウニジョウジョウ,니조성,curated_standard_translation,reviewed,京都市中京区,京都府京都市中京区二条通堀川西入二条城町541,35.014239,135.748221,primary,heritage_or_landmark,name matched /城|御所|離宮|旧宅|住宅|邸$|史跡|遺跡|古墳|町並み|街道|橋$|坂$|市場$|タワー|展望|映画村|劇場|能楽堂|歌舞練場|疏水|水路閣/,,
0000007724,座辺の骨董 幾一里,イクイチリ,이쿠이치리,official_kana_transliteration,auto_needs_review,京都市中京区,京都府京都市中京区坊城通後院通下ル壬生馬場町19-1,35.006786,135.744414,needs_review,ambiguous_facility,no high-confidence place or exclusion rule matched,,
0000001087,晦庵 河道屋,ミソカアン カワミチヤ,미소카안 카와미치야,official_kana_transliteration,auto_needs_review,京都市中京区,京都府京都市中京区麩屋町通三条上ル,35.009629,135.765655,needs_review,ambiguous_facility,no high-confidence place or exclusion rule matched,,
0000007762,まんざら亭 NISHIKI,マンザラテイ ニシキ,만자라테이 니시키,official_kana_transliteration,auto_needs_review,京都市中京区,京都府京都市中京区錦小路通烏丸西入ル占出山町317,35.005026,135.759160,needs_review,ambiguous_facility,no high-confidence place or exclusion rule matched,,
0000001100,本家重兵衛,ホンケジュウベエ,혼케주우베에,official_kana_transliteration,auto_needs_review,京都市中京区,京都府京都市中京区錦小路通室町東入占出山町310番地6,35.004865,135.758820,excluded_non_primary,commercial_business,commercial operation confirmed by description,,
0000007956,京都万華鏡ミュージアム姉小路館,キョウトマンゲキョウミュージアムアネヤコウジカン,교토만게교뮤지엄아네야코지칸,official_kana_transliteration,auto_needs_review,京都市中京区,京都府京都市中京区姉小路通東洞院東入曇華院前町706-3,35.009751,135.761687,primary,museum_or_gallery,name matched /博物館|美術館|資料館|記念館|ミュージアム/,,
0000003832,セカンドハウス東洞院店,セカンドハウスヒガシノトウインテン,세칸도하우스히가시노토인텐,official_kana_transliteration,auto_needs_review,京都市中京区,京都府京都市中京区東洞院通六角下ル御射山町283,35.006433,135.761007,excluded_non_primary,retail_or_rental_service,name matched /レンタル|貸衣装|着付け|変身|商店|ショップ|ショッピング|土産|専門店|工房|スタジオ|手創り体験|手作り体験|京あるき|サイクル|店($|[（(])/,,
0000006742,京都絞り工芸館,キョウトシボリコウゲイカン,교토시보리공예칸,official_kana_transliteration,auto_needs_review,京都市中京区,京都府京都市中京区油小路通御池下ル,35.010123,135.753701,needs_review,visitor_cultural_candidate,"visitor-facing facility, but hall/center names may mix museums, shops and public services",,
0000003833,鈴木一染織コレクション,スズキハジメセンショクコレクション,스즈키하지메센쇼쿠코레쿠숀,official_kana_transliteration,auto_needs_review,京都市中京区,京都府京都市中京区丸太町通室町西入道場町4（鈴木時代裂研究所内4階）,35.017274,135.757932,needs_review,ambiguous_facility,no high-confidence place or exclusion rule matched,,
0000007717,大極殿本舗 六角店 甘味処「栖園」,ダイゴクデンホンポ ロッカクミセ アマミドコロ 「セイエン」,다이고쿠덴혼포 로카쿠미세 아마미도코로 세이엔,official_kana_transliteration,auto_needs_review,京都市中京区,京都府京都市中京区六角通高倉東入ル堀之上町120,35.007261,135.763008,excluded_non_primary,food_or_beverage,name matched /料理|食堂|レストラン|カフェ|喫茶|茶屋|料亭|割烹|菓子|菓寮|餅|豆腐|とうふ|納豆|漬物|パン|珈琲|コーヒー|ワイン|ビール|酒造|醤油|グリル|洋食|そば|うどん|寿司|鮨|焼肉|ラーメン|スイーツ|甘味|御すぐき|本舗|茶房|食文化|食事処/,,
0000003699,大江能楽堂／能・狂言,オオエノウガクドウ／ノウ・キョウゲン,오에노가쿠도 노 교겐,official_kana_transliteration,auto_needs_review,京都市中京区,京都府京都市中京区押小路柳馬場東入ル,35.012015,135.764365,primary,heritage_or_landmark,name matched /城|御所|離宮|旧宅|住宅|邸$|史跡|遺跡|古墳|町並み|街道|橋$|坂$|市場$|タワー|展望|映画村|劇場|能楽堂|歌舞練場|疏水|水路閣/,,
0000007958,クラフトやまむら,クラフトヤマムラ,쿠라후토야마무라,official_kana_transliteration,auto_needs_review,京都市中京区,京都府京都市中京区大宮通御池下ル,35.010257,135.749299,needs_review,ambiguous_facility,no high-confidence place or exclusion rule matched,,
0000003919,たん熊 北店,タンクマ キタミセ,탄쿠마 키타미세,official_kana_transliteration,auto_needs_review,京都市中京区,京都府京都市中京区西木屋町四条上ル紙屋町355,35.005195,135.770061,excluded_non_primary,retail_or_rental_service,name matched /レンタル|貸衣装|着付け|変身|商店|ショップ|ショッピング|土産|専門店|工房|スタジオ|手創り体験|手作り体験|京あるき|サイクル|店($|[（(])/,,
0000007741,マダム紅蘭,マダムコウラン,마다무코란,official_kana_transliteration,auto_needs_review,京都市中京区,京都府京都市中京区寺町丸太町東入ル,35.017597,135.767491,excluded_non_primary,commercial_business,commercial operation confirmed by description,,
0000003920,料理旅館・天ぷら 吉川,リョウリリョカン・テンプラ ヨシカワ,료리료칸 텐푸라 요시카와,official_kana_transliteration,auto_needs_review,京都市中京区,京都府京都市中京区富小路通御池下ル,35.010372,135.764928,excluded_non_primary,lodging_or_bathing,name matched /ホテル|旅館|民宿|ペンション|ロッジ|ゲストハウス|(^|[\s　])宿([\s　]|$)|小宿|お宿|宿泊所|青少年村|キャンプ場|温泉|足湯|スパ|spa|銭湯/,,
0000007957,永楽屋 細辻伊兵衛商店 本店,エイラクヤ ホソツジイヘエショウテン ホンテン,에이라쿠야 호소쓰지이헤에쇼텐 혼텐,official_kana_transliteration,auto_needs_review,京都市中京区,京都府京都市中京区室町通三条上ル役行者町368番地,35.009274,135.758132,excluded_non_primary,retail_or_rental_service,name matched /レンタル|貸衣装|着付け|変身|商店|ショップ|ショッピング|土産|専門店|工房|スタジオ|手創り体験|手作り体験|京あるき|サイクル|店($|[（(])/,,
0000003928,京料理 梅むら,キョウリョウリ ウメムラ,교료리 우메무라,official_kana_transliteration,auto_needs_review,京都市中京区,京都府京都市中京区木屋町三条上る上大阪町515-1,35.010350,135.770996,excluded_non_primary,food_or_beverage,name matched /料理|食堂|レストラン|カフェ|喫茶|茶屋|料亭|割烹|菓子|菓寮|餅|豆腐|とうふ|納豆|漬物|パン|珈琲|コーヒー|ワイン|ビール|酒造|醤油|グリル|洋食|そば|うどん|寿司|鮨|焼肉|ラーメン|スイーツ|甘味|御すぐき|本舗|茶房|食文化|食事処/,,
0000009172,中華菜家 一品香,チュウカサイカ イッピンカ,추우카사이카 이핀카,official_kana_transliteration,auto_needs_review,京都市中京区,京都府京都市中京区先斗町四条上る鍋屋町220-5,35.004484,135.771040,excluded_non_primary,commercial_business,commercial operation confirmed by description,,
0000003603,いけばな資料館,イケバナシリョウカン,이케바나자료관,official_kana_transliteration,auto_needs_review,京都市中京区,京都府京都市中京区六角通東洞院西入ル 池坊3階,35.008049,135.760060,primary,museum_or_gallery,name matched /博物館|美術館|資料館|記念館|ミュージアム/,,
0000007719,うれしなつ菓子 格子家,ウレシナツカシ コウシヤ,우레시나쓰카시 코시야,official_kana_transliteration,auto_needs_review,京都市中京区,京都府京都市中京区大宮通御池上る市之町180,35.011702,135.748960,excluded_non_primary,food_or_beverage,name matched /料理|食堂|レストラン|カフェ|喫茶|茶屋|料亭|割烹|菓子|菓寮|餅|豆腐|とうふ|納豆|漬物|パン|珈琲|コーヒー|ワイン|ビール|酒造|醤油|グリル|洋食|そば|うどん|寿司|鮨|焼肉|ラーメン|スイーツ|甘味|御すぐき|本舗|茶房|食文化|食事処/,,
0000003602,京都生活工藝館「無名舎」,キョウトセイカツコウゲイカン「ムメイシャ」,교토세이카쓰공예칸무메이샤,official_kana_transliteration,auto_needs_review,京都市中京区,京都府京都市中京区新町通六角下ル六角町363,35.006581,135.756413,needs_review,ambiguous_facility,no high-confidence place or exclusion rule matched,,
0000006538,ハートプラザKYOTO三条,ハートプラザキョウトサンジョウ,하토푸라자교토산조,official_kana_transliteration,auto_needs_review,京都市中京区,京都府京都市中京区三条通寺町東入石橋町14番地4,35.008651,135.768132,excluded_non_primary,commercial_business,commercial operation confirmed by description,,
0000003228,長谷川松寿堂,ハセガワショウジュドウ,하세가와쇼주도,official_kana_transliteration,auto_needs_review,京都市中京区,京都府京都市中京区三条通高倉東入ル,35.008729,135.762745,excluded_non_primary,commercial_business,commercial operation confirmed by description,,
0000009178,黄桜 祥風楼,キザクラ ショウフウロウ,키자쿠라 쇼후우로,official_kana_transliteration,auto_needs_review,京都市中京区,京都府京都市中京区河原町通四条上る一筋目東入る,35.004374,135.769950,excluded_non_primary,commercial_business,commercial operation confirmed by description,,
0000001082,先斗町いづもや,ポントチョウイヅモヤ,폰토초이즈모야,official_kana_transliteration,auto_needs_review,京都市中京区,京都府京都市中京区先斗町通四条上ル,35.004080,135.771162,excluded_non_primary,commercial_business,commercial operation confirmed by description,,
0000009167,とん漫,トンマン,톤만,official_kana_transliteration,auto_needs_review,京都市中京区,京都府京都市中京区富小路通姉小路下る,35.009627,135.765266,excluded_non_primary,commercial_business,commercial operation confirmed by description,,
0000003601,京都文化博物館,キョウトブンカハクブツカン,교토분카박물관,official_kana_transliteration,auto_needs_review,京都市中京区,京都府京都市中京区三条高倉,35.008798,135.762249,primary,museum_or_gallery,name matched /博物館|美術館|資料館|記念館|ミュージアム/,,
0000008692,京都国際マンガミュージアム,キョウトコクサイマンガミュージアム,교토코쿠사이만가뮤지엄,official_kana_transliteration,auto_needs_review,京都市中京区,京都府京都市中京区烏丸通御池上ル金吹町452,35.011917,135.759309,primary,museum_or_gallery,name matched /博物館|美術館|資料館|記念館|ミュージアム/,,
0000003310,金属工芸工房 竹影堂,キンゾクコウゲイコウボウ チクエイドウ,킨조쿠공예코보 치쿠에이도,official_kana_transliteration,auto_needs_review,京都市中京区,京都府京都市中京区押小路通麩屋町西入ル,35.012054,135.765622,excluded_non_primary,retail_or_rental_service,name matched /レンタル|貸衣装|着付け|変身|商店|ショップ|ショッピング|土産|専門店|工房|スタジオ|手創り体験|手作り体験|京あるき|サイクル|店($|[（(])/,,
0000007721,本家 船はしや,ホンケ フナハシヤ,혼케 후나하시야,official_kana_transliteration,auto_needs_review,京都市中京区,京都府京都市中京区三条大橋西詰112,35.009101,135.771119,needs_review,ambiguous_facility,no high-confidence place or exclusion rule matched,,
0000003311,ついぶ京都工房,ツイブキョウトコウボウ,쓰이부교토코보,official_kana_transliteration,auto_needs_review,京都市中京区,京都府京都市中京区押小路通麸屋町東入ル橘町617,35.012205,135.765942,excluded_non_primary,retail_or_rental_service,name matched /レンタル|貸衣装|着付け|変身|商店|ショップ|ショッピング|土産|専門店|工房|スタジオ|手創り体験|手作り体験|京あるき|サイクル|店($|[（(])/,,
0000009471,株式会社鼓月 本店,コゲツ ホンテン,코게쓰 혼텐,official_kana_transliteration,auto_needs_review,京都市中京区,京都府京都市中京区旧二条通七本松西入る,35.015890,135.738439,excluded_non_primary,retail_or_rental_service,name matched /レンタル|貸衣装|着付け|変身|商店|ショップ|ショッピング|土産|専門店|工房|スタジオ|手創り体験|手作り体験|京あるき|サイクル|店($|[（(])/,,
0000003309,香老舗 松栄堂 京都本店,コウロウホ ショウエイドウ キョウトホンテン,코로호 쇼에이도 교토혼텐,official_kana_transliteration,auto_needs_review,京都市中京区,京都府京都市中京区烏丸通二条上ル東側,35.014216,135.759809,excluded_non_primary,retail_or_rental_service,name matched /レンタル|貸衣装|着付け|変身|商店|ショップ|ショッピング|土産|専門店|工房|スタジオ|手創り体験|手作り体験|京あるき|サイクル|店($|[（(])/,,
0000009177,膳處漢ぽっちり,ゼゼカンポッチリ,제제칸포치리,official_kana_transliteration,auto_needs_review,京都市中京区,京都府京都市中京区錦小路通室町西入る天神山町283-2,35.005007,135.757423,excluded_non_primary,commercial_business,commercial operation confirmed by description,,
0000003307,くろちく天正館,クロチクテンショウカン,쿠로치쿠텐쇼칸,official_kana_transliteration,auto_needs_review,京都市中京区,京都府京都市中京区新町通錦小路上ル百足屋町380,35.005775,135.756384,needs_review,ambiguous_facility,no high-confidence place or exclusion rule matched,,
0000008240,錦の水,ニシキノミズ,니시키노미즈,official_kana_transliteration,auto_needs_review,京都市中京区,京都府京都市中京区新京極通四条上ル中之町537番地 錦天満宮内,35.005022,135.767387,needs_review,ambiguous_facility,no high-confidence place or exclusion rule matched,,
0000006107,御霊水,ゴリョウスイ,고료스이,official_kana_transliteration,auto_needs_review,京都市中京区,京都府京都市中京区寺町通丸太町下ル,35.017186,135.767809,needs_review,ambiguous_facility,no high-confidence place or exclusion rule matched,,
0000009011,永楽屋本店,エイラクヤホンテン,에이라쿠야혼텐,official_kana_transliteration,auto_needs_review,京都市中京区,京都府京都市中京区河原町通四条上る東側,35.004169,135.769528,excluded_non_primary,retail_or_rental_service,name matched /レンタル|貸衣装|着付け|変身|商店|ショップ|ショッピング|土産|専門店|工房|スタジオ|手創り体験|手作り体験|京あるき|サイクル|店($|[（(])/,,
0000007757,懐石・宿 近又,カイセキ・ヤド キンマタ,카이세키 야도 킨마타,official_kana_transliteration,auto_needs_review,京都市中京区,京都府京都市中京区御幸町通四条上ル,35.004732,135.766286,excluded_non_primary,commercial_business,commercial operation confirmed by description,,
0000009588,アートコンプレックス1928,アートコンプレックス,아토콘푸레쿠스,official_kana_transliteration,auto_needs_review,京都市中京区,京都府京都市中京区三条通御幸町東南角（事務所にお越しの際は、4階までお上がりください。）,35.008482,135.766516,needs_review,ambiguous_facility,no high-confidence place or exclusion rule matched,,
0000009689,香老舗 松栄堂 薫習館,コウロウホ ショウエイドウ クンジュウカン,코로호 쇼에이도 쿤주우칸,official_kana_transliteration,auto_needs_review,京都市中京区,京都府京都市中京区烏丸通二条上ル東側,35.014218,135.759809,needs_review,ambiguous_facility,no high-confidence place or exclusion rule matched,,
0000009653,京都さがの館 京都四条本店（京あるき）,キョウトサガノカン,교토사가노칸,official_kana_transliteration,auto_needs_review,京都市中京区,京都府京都市中京区室町通四条上ル菊水鉾町582 さがの館ビル2階,35.004247,135.758216,excluded_non_primary,retail_or_rental_service,name matched /レンタル|貸衣装|着付け|変身|商店|ショップ|ショッピング|土産|専門店|工房|スタジオ|手創り体験|手作り体験|京あるき|サイクル|店($|[（(])/,,
0000009183,黒豆茶庵 北尾 錦店,クロマメサアン キタオ ニシキテン,쿠로마메사안 키타오 니시키텐,official_kana_transliteration,auto_needs_review,京都市中京区,京都府京都市中京区錦小路通麩屋町西入東魚屋町192,35.005142,135.765122,excluded_non_primary,retail_or_rental_service,name matched /レンタル|貸衣装|着付け|変身|商店|ショップ|ショッピング|土産|専門店|工房|スタジオ|手創り体験|手作り体験|京あるき|サイクル|店($|[（(])/,,
0000008664,染・清流館,ソメ・セイリュウカン,소메 세이류우칸,official_kana_transliteration,auto_needs_review,京都市中京区,京都府京都市中京区室町通錦小路上る山伏山町550-1 明倫ビル6階,35.005591,135.758164,needs_review,visitor_cultural_candidate,"visitor-facing facility, but hall/center names may mix museums, shops and public services",,
0000009457,ヴィアイン京都四条室町,ヴィアインキョウトシジョウムロマチ,비아인교토시조무로마치,official_kana_transliteration,auto_needs_review,京都市中京区,京都府京都市中京区室町通錦小路上ル山伏山町551-2,35.005572,135.757959,needs_review,ambiguous_facility,no high-confidence place or exclusion rule matched,,
0000009043,先斗町歌舞練場,ポントチョウカブレンジョウ,폰토초카부렌조,official_kana_transliteration,auto_needs_review,京都市中京区,京都府京都市中京区先斗町三条下ル,35.008052,135.771279,primary,heritage_or_landmark,name matched /城|御所|離宮|旧宅|住宅|邸$|史跡|遺跡|古墳|町並み|街道|橋$|坂$|市場$|タワー|展望|映画村|劇場|能楽堂|歌舞練場|疏水|水路閣/,,
0000008697,松彌,マツヤ,마쓰야,official_kana_transliteration,auto_needs_review,京都市中京区,京都府京都市中京区新烏丸通二条上ル,35.013852,135.768104,needs_review,ambiguous_facility,no high-confidence place or exclusion rule matched,,
0000009184,炭火焼鳥 串くら本店,スミビヤキトリ クシクラホンテン,스미비야키토리 쿠시쿠라혼텐,official_kana_transliteration,auto_needs_review,京都市中京区,京都府京都市中京区高倉通御池上る柊町584,35.011374,135.762261,excluded_non_primary,retail_or_rental_service,name matched /レンタル|貸衣装|着付け|変身|商店|ショップ|ショッピング|土産|専門店|工房|スタジオ|手創り体験|手作り体験|京あるき|サイクル|店($|[（(])/,,
0000009187,桔梗寿司,キキョウズシ,키교즈시,official_kana_transliteration,auto_needs_review,京都市中京区,京都府京都市中京区油小路通丸太町下る大文字町43,35.017118,135.753353,excluded_non_primary,food_or_beverage,name matched /料理|食堂|レストラン|カフェ|喫茶|茶屋|料亭|割烹|菓子|菓寮|餅|豆腐|とうふ|納豆|漬物|パン|珈琲|コーヒー|ワイン|ビール|酒造|醤油|グリル|洋食|そば|うどん|寿司|鮨|焼肉|ラーメン|スイーツ|甘味|御すぐき|本舗|茶房|食文化|食事処/,,
0000008147,omo cafe,オモ カフェ,오모 카페,official_kana_transliteration,auto_needs_review,京都市中京区,京都府京都市中京区麩屋町蛸薬師下ル梅屋町499,35.005291,135.765425,needs_review,ambiguous_facility,no high-confidence place or exclusion rule matched,,
0000007739,亀甲屋,キッコウヤ,키코야,official_kana_transliteration,auto_needs_review,京都市中京区,京都府京都市中京区高倉通御池下ル東側,35.010312,135.762532,excluded_non_primary,commercial_business,commercial operation confirmed by description,,
0000009186,京都一の傅 本店,キョウトイチノデン ホンテン,교토이치노덴 혼텐,official_kana_transliteration,auto_needs_review,京都市中京区,京都府京都市中京区柳馬場通錦上る十文字町435,35.006040,135.764108,excluded_non_primary,retail_or_rental_service,name matched /レンタル|貸衣装|着付け|変身|商店|ショップ|ショッピング|土産|専門店|工房|スタジオ|手創り体験|手作り体験|京あるき|サイクル|店($|[（(])/,,
0000008453,京うちわ 阿以波,キョウウチワ アイバ,교치와 아이바,official_kana_transliteration,auto_needs_review,京都市中京区,京都府京都市中京区柳馬場通六角下る,35.006482,135.763911,needs_review,ambiguous_facility,no high-confidence place or exclusion rule matched,,
0000000145,泉涌寺,センニュウジ,센뉴우지,official_kana_transliteration,auto_needs_review,京都市東山区,京都府京都市東山区泉涌寺山内町27,34.978138,135.781281,primary,religious_site,name matched /寺|神社|神宮|天満宮|大社|地蔵|不動|観音|霊廟|墓所/,,
0000009513,知恩院,チオンイン,치온인,official_kana_transliteration,auto_needs_review,京都市東山区,京都府京都市東山区林下町400,35.005422,135.782379,primary,religious_site,religious suffix confirmed by description,,
0000003251,ぶぶ家,ブブヤ,부부야,official_kana_transliteration,auto_needs_review,京都市東山区,京都府京都市東山区祇園石段下北側297,35.004327,135.777296,needs_review,ambiguous_facility,no high-confidence place or exclusion rule matched,,
0000006129,高台寺「掌美術館」,コウダイジ「ショウビジュツカン」,코다이지쇼미술관,official_kana_transliteration,auto_needs_review,京都市東山区,京都府京都市東山区高台寺下河原町530 京・洛市「ねね」2階,35.000580,135.779784,primary,religious_site,name matched /寺|神社|神宮|天満宮|大社|地蔵|不動|観音|霊廟|墓所/,,
0000003250,甘春堂東店,カンシュンドウヒガシミセ,칸슌도히가시미세,official_kana_transliteration,auto_needs_review,京都市東山区,京都府京都市東山区川端正面東入ル茶屋町511-1,34.991912,135.770671,excluded_non_primary,retail_or_rental_service,name matched /レンタル|貸衣装|着付け|変身|商店|ショップ|ショッピング|土産|専門店|工房|スタジオ|手創り体験|手作り体験|京あるき|サイクル|店($|[（(])/,,
0000006221,ゑびす神社,ヱビスジンジャ,에비스신사,official_kana_transliteration,auto_needs_review,京都市東山区,京都府京都市東山区大和大路四条下ル小松町125,34.999869,135.771731,primary,religious_site,name matched /寺|神社|神宮|天満宮|大社|地蔵|不動|観音|霊廟|墓所/,,
0000000147,京漬物・ニシダや,ニシダヤ,니시다야,official_kana_transliteration,auto_needs_review,京都市東山区,京都府京都市東山区東大路通今熊野池田町6番地,34.985255,135.774379,excluded_non_primary,food_or_beverage,name matched /料理|食堂|レストラン|カフェ|喫茶|茶屋|料亭|割烹|菓子|菓寮|餅|豆腐|とうふ|納豆|漬物|パン|珈琲|コーヒー|ワイン|ビール|酒造|醤油|グリル|洋食|そば|うどん|寿司|鮨|焼肉|ラーメン|スイーツ|甘味|御すぐき|本舗|茶房|食文化|食事処/,,
0000009705,京都さがの館 京都祇園店（京あるき）,キョウトサガノカン,교토사가노칸,official_kana_transliteration,auto_needs_review,京都市東山区,京都府京都市東山区下弁天町49,34.999450,135.777519,excluded_non_primary,retail_or_rental_service,name matched /レンタル|貸衣装|着付け|変身|商店|ショップ|ショッピング|土産|専門店|工房|スタジオ|手創り体験|手作り体験|京あるき|サイクル|店($|[（(])/,,
0000003299,森陶器館,モリトウキカン,모리토키칸,official_kana_transliteration,auto_needs_review,京都市東山区,京都府京都市東山区清水2丁目,34.995896,135.781708,needs_review,visitor_cultural_candidate,"visitor-facing facility, but hall/center names may mix museums, shops and public services",,
0000009707,川勝總本家 清水参道店,カワカツソウホンケ キヨミズサンドウテン,카와카쓰소혼케 키요미즈산도텐,official_kana_transliteration,auto_needs_review,京都市東山区,京都府京都市東山区清水1-260,34.995615,135.781862,excluded_non_primary,retail_or_rental_service,name matched /レンタル|貸衣装|着付け|変身|商店|ショップ|ショッピング|土産|専門店|工房|スタジオ|手創り体験|手作り体験|京あるき|サイクル|店($|[（(])/,,
0000000149,今熊野観音寺,イマクマノカンノンジ,이마쿠마노칸논지,official_kana_transliteration,auto_needs_review,京都市東山区,京都府京都市東山区泉涌寺山内町32,34.979834,135.781184,primary,religious_site,name matched /寺|神社|神宮|天満宮|大社|地蔵|不動|観音|霊廟|墓所/,,
0000009706,川勝總本家 高台寺二年坂店,カワカツソウホンケ コウダイジニネンザカテン,카와카쓰소혼케 코다이지니넨자카텐,official_kana_transliteration,auto_needs_review,京都市東山区,京都府京都市東山区高台寺南門下河原町東入桝屋町,34.999170,135.780148,excluded_non_primary,retail_or_rental_service,name matched /レンタル|貸衣装|着付け|変身|商店|ショップ|ショッピング|土産|専門店|工房|スタジオ|手創り体験|手作り体験|京あるき|サイクル|店($|[（(])/,,
0000003696,南座,ミナミザ,미나미자,official_kana_transliteration,auto_needs_review,京都市東山区,京都府京都市東山区四条大橋東詰,35.003496,135.772335,needs_review,ambiguous_facility,no high-confidence place or exclusion rule matched,,
0000009512,青蓮院門跡,ショウレンインモンゼキ,쇼렌인몬제키,official_kana_transliteration,auto_needs_review,京都市東山区,京都府京都市東山区粟田口三条坊町25204,35.007463,135.783146,needs_review,ambiguous_facility,no high-confidence place or exclusion rule matched,,
0000000152,即成院,ソクジョウイン,소쿠조인,official_kana_transliteration,auto_needs_review,京都市東山区,京都府京都市東山区泉涌寺山内町28,34.981680,135.777316,primary,religious_site,religious suffix confirmed by description,,
0000009510,円山公園,マルヤマコウエン,마루야마공원,official_kana_transliteration,auto_needs_review,京都市東山区,京都府京都市東山区円山町他,35.003890,135.780918,primary,nature_or_park,name matched /公園($|[\s　（(])|庭園($|[\s　（(])|植物園|動物園|水族館|渓谷|峡谷|竹林|遊歩道|哲学の道/,,
0000000154,五大堂同聚院,ゴダイドウドウジュイン,고다이도도주인,official_kana_transliteration,auto_needs_review,京都市東山区,京都府京都市東山区本町15丁目799,34.978555,135.772433,primary,religious_site,religious suffix confirmed by description,,
0000007750,スコルピオーネ祇園,スコルピオーネギオン,스코루피오네기온,official_kana_transliteration,auto_needs_review,京都市東山区,京都府京都市東山区花見小路新橋下ル清本町381,35.005418,135.775346,excluded_non_primary,commercial_business,commercial operation confirmed by description,,
0000003365,霊山観音,リョウゼンカンノン,료젠칸논,official_kana_transliteration,auto_needs_review,京都市東山区,京都府京都市東山区高台寺下河原町526-2,34.999909,135.781919,primary,religious_site,name matched /寺|神社|神宮|天満宮|大社|地蔵|不動|観音|霊廟|墓所/,,
0000007758,白碗竹カイ樓,バイワンジュウカイロウ,바이완주우카이로,official_kana_transliteration,auto_needs_review,京都市東山区,京都府京都市東山区新橋通大和大路東入元吉町49,35.005920,135.773556,excluded_non_primary,commercial_business,commercial operation confirmed by description,,
0000003366,法住寺,ホウジュウジ,호주우지,official_kana_transliteration,auto_needs_review,京都市東山区,京都府京都市東山区三十三間堂廻り町655,34.987474,135.772668,primary,religious_site,name matched /寺|神社|神宮|天満宮|大社|地蔵|不動|観音|霊廟|墓所/,,
0000009509,ウェスティン都ホテル京都,ウェスティンミヤコホテルキョウト,웨스틴미야코호테루교토,official_kana_transliteration,auto_needs_review,京都市東山区,京都府京都市東山区粟田口華頂町1（三条けあげ）,35.008817,135.787925,excluded_non_primary,lodging_or_bathing,name matched /ホテル|旅館|民宿|ペンション|ロッジ|ゲストハウス|(^|[\s　])宿([\s　]|$)|小宿|お宿|宿泊所|青少年村|キャンプ場|温泉|足湯|スパ|spa|銭湯/,,
0000000128,八坂の塔（法観寺）,ヤサカノトウ（ホウカンジ）,야사카노토(호칸지),official_kana_transliteration,auto_needs_review,京都市東山区,京都府京都市東山区八坂上町388,34.998587,135.779235,primary,religious_site,name matched /寺|神社|神宮|天満宮|大社|地蔵|不動|観音|霊廟|墓所/,,
0000006082,吉水園,ヨシミズエン,요시미즈엔,official_kana_transliteration,auto_needs_review,京都市東山区,京都府京都市東山区三条通白川橋東3丁目夷町157,35.008992,135.783017,excluded_non_primary,commercial_business,commercial operation confirmed by description,,
0000001101,ぎをん梅の井 陶泉房,ギヲンウメノイ トウセンボウ,기온우메노이 토센보,official_kana_transliteration,auto_needs_review,京都市東山区,京都府京都市東山区祇園町北側 円山公園内,35.004882,135.778845,excluded_non_primary,commercial_business,commercial operation confirmed by description,,
0000009460,京都東山荘,キョウトヒガシヤマソウ,교토히가시야마소,official_kana_transliteration,auto_needs_review,京都市東山区,京都府京都市東山区清水4-159,34.997335,135.779010,needs_review,ambiguous_facility,no high-confidence place or exclusion rule matched,,
0000000129,五条大橋,ゴジョウオオハシ,고조오하시,official_kana_transliteration,auto_needs_review,京都市東山区,京都府京都市東山区五条通り,34.995825,135.766951,primary,heritage_or_landmark,name matched /城|御所|離宮|旧宅|住宅|邸$|史跡|遺跡|古墳|町並み|街道|橋$|坂$|市場$|タワー|展望|映画村|劇場|能楽堂|歌舞練場|疏水|水路閣/,,
0000007753,京料理 道楽,ドウラク,도라쿠,official_kana_transliteration,auto_needs_review,京都市東山区,京都府京都市東山区正面通本町西入正面町304,34.991755,135.769011,excluded_non_primary,food_or_beverage,name matched /料理|食堂|レストラン|カフェ|喫茶|茶屋|料亭|割烹|菓子|菓寮|餅|豆腐|とうふ|納豆|漬物|パン|珈琲|コーヒー|ワイン|ビール|酒造|醤油|グリル|洋食|そば|うどん|寿司|鮨|焼肉|ラーメン|スイーツ|甘味|御すぐき|本舗|茶房|食文化|食事処/,,
0000000137,智積院,チシャクイン,지샤쿠인,curated_standard_translation,reviewed,京都市東山区,京都府京都市東山区東大路通七条下ル東瓦町964番地,34.988097,135.776398,primary,heritage_or_landmark,historic-site suffix confirmed by description,,
0000006453,豊国さんのおもしろ市,ホウコクサンノオモシロイチ,호코쿠산노오모시로이치,official_kana_transliteration,auto_needs_review,京都市東山区,京都府京都市東山区大和大路正面茶屋町530 豊国神社（とよくにじんじゃ）境内,34.991570,135.772495,needs_review,ambiguous_facility,no high-confidence place or exclusion rule matched,,
0000003954,長楽館,チョウラクカン,초라쿠칸,official_kana_transliteration,auto_needs_review,京都市東山区,京都府京都市東山区八坂鳥居前東入円山町604,35.003120,135.780237,excluded_non_primary,commercial_business,commercial operation confirmed by description,,
0000009515,並河靖之七宝記念館,ナミカワヤスユキシッポウキネンカン,나미카와 야스유키 칠보 기념관,curated_standard_translation,reviewed,京都市東山区,京都府京都市東山区三条通北裏白川筋東入堀池町388,35.009985,135.781376,primary,museum_or_gallery,name matched /博物館|美術館|資料館|記念館|ミュージアム/,,
0000003587,豊国神社宝物館,トヨクニジンジャホウモツカン,토요쿠니신사호모쓰칸,official_kana_transliteration,auto_needs_review,京都市東山区,京都府京都市東山区大和大路正面茶屋町530,34.991099,135.772503,excluded_component,child_record_of_same_place,same coordinate/address and name begins with parent place: 豊国神社,0000000135,豊国神社
0000006466,清水三年坂美術館,キヨミズサンネンザカビジュツカン,키요미즈산넨자카미술관,official_kana_transliteration,auto_needs_review,京都市東山区,京都府京都市東山区清水3丁目337-1,34.997423,135.781142,primary,museum_or_gallery,name matched /博物館|美術館|資料館|記念館|ミュージアム/,,
0000003300,今井半念珠店,イマイハンネンジュテン,이마이한넨주텐,official_kana_transliteration,auto_needs_review,京都市東山区,京都府京都市東山区大黒町通正面南入ル609,34.991156,135.770129,excluded_non_primary,retail_or_rental_service,name matched /レンタル|貸衣装|着付け|変身|商店|ショップ|ショッピング|土産|専門店|工房|スタジオ|手創り体験|手作り体験|京あるき|サイクル|店($|[（(])/,,
0000009514,大本山東福寺,ダイホンザントウフクジ,다이혼잔토후쿠지,official_kana_transliteration,auto_needs_review,京都市東山区,京都府京都市東山区本町15丁目778,34.976620,135.774367,primary,religious_site,name matched /寺|神社|神宮|天満宮|大社|地蔵|不動|観音|霊廟|墓所/,,
0000003248,総本家にしんそば松葉,ソウホンケニシンソバマツバ,소혼케니신소바마쓰바,official_kana_transliteration,auto_needs_review,京都市東山区,京都府京都市東山区四条大橋東入ル川端町192,35.003715,135.772240,excluded_non_primary,food_or_beverage,name matched /料理|食堂|レストラン|カフェ|喫茶|茶屋|料亭|割烹|菓子|菓寮|餅|豆腐|とうふ|納豆|漬物|パン|珈琲|コーヒー|ワイン|ビール|酒造|醤油|グリル|洋食|そば|うどん|寿司|鮨|焼肉|ラーメン|スイーツ|甘味|御すぐき|本舗|茶房|食文化|食事処/,,
0000006468,総本家ゆどうふ奥丹清水,ソウホンケユドウフオクタンキヨミズ,소혼케유도후오쿠탄키요미즈,official_kana_transliteration,auto_needs_review,京都市東山区,京都府京都市東山区清水3丁目340,34.997829,135.780701,excluded_non_primary,commercial_business,commercial operation confirmed by description,,
0000000139,子安の塔,コヤスノトウ,코야스노토,official_kana_transliteration,auto_needs_review,京都市東山区,京都府京都市東山区清水1丁目,34.992933,135.784963,primary,religious_site,religious suffix confirmed by description,,
0000006469,漢検 漢字博物館・図書館（漢字ミュージアム）,カンケン カンジハクブツカン・トショカン（カンジミュージアム）,칸켄 칸지박물관 토쇼칸(칸지뮤지엄),official_kana_transliteration,auto_needs_review,京都市東山区,京都府京都市東山区祇園町南側551,35.003477,135.776622,primary,museum_or_gallery,name matched /博物館|美術館|資料館|記念館|ミュージアム/,,
0000000674,石塀小路,イシベコウジ,이시베코지,official_kana_transliteration,auto_needs_review,京都市東山区,京都府京都市東山区,35.000055,135.779809,excluded_non_primary,commercial_business,commercial operation confirmed by description,,
0000007718,半兵衛麸,ハンベエフ,한베에후,official_kana_transliteration,auto_needs_review,京都市東山区,京都府京都市東山区問屋町通五条下ル上人町433,34.995040,135.768634,excluded_non_primary,commercial_business,commercial operation confirmed by description,,
0000003377,悲田院,ヒデンイン,히덴인,official_kana_transliteration,auto_needs_review,京都市東山区,京都府京都市東山区泉涌寺山内町35,34.979408,135.776889,needs_review,ambiguous_facility,no high-confidence place or exclusion rule matched,,
0000006470,井伊美術館（旧中村甲刀修史館）,イイビジュツカン（キュウナカムラコウトウシュウシカン）,이이미술관(큐우나카무라코토슈우시칸),official_kana_transliteration,auto_needs_review,京都市東山区,京都府京都市東山区花見小路通四条下ル4丁目小松町564,35.000100,135.775502,primary,museum_or_gallery,name matched /博物館|美術館|資料館|記念館|ミュージアム/,,
0000000105,八坂神社,ヤサカジンジャ,야사카신사,official_kana_transliteration,auto_needs_review,京都市東山区,京都府京都市東山区祇園町北側625,35.003666,135.778553,primary,religious_site,name matched /寺|神社|神宮|天満宮|大社|地蔵|不動|観音|霊廟|墓所/,,
0000009534,天得院,テントクイン,텐토쿠인,official_kana_transliteration,auto_needs_review,京都市東山区,京都府京都市東山区本町15丁目802,34.976736,135.772337,primary,religious_site,religious suffix confirmed by description,,
0000003378,智積院会館,チシャクインカイカン,치샤쿠인카이칸,official_kana_transliteration,auto_needs_review,京都市東山区,京都府京都市東山区東山七条下ル,34.987754,135.775019,needs_review,ambiguous_facility,no high-confidence place or exclusion rule matched,,
0000009517,芬陀院（雪舟寺）,フンダイン（セッシュウジ）,훈다인(세슈우지),official_kana_transliteration,auto_needs_review,京都市東山区,京都府京都市東山区本町15丁目803,34.976283,135.772079,primary,religious_site,name matched /寺|神社|神宮|天満宮|大社|地蔵|不動|観音|霊廟|墓所/,,
0000000107,長楽寺,チョウラクジ,초라쿠지,official_kana_transliteration,auto_needs_review,京都市東山区,京都府京都市東山区八坂鳥居前東入ル円山町626番地,35.002582,135.783527,primary,religious_site,name matched /寺|神社|神宮|天満宮|大社|地蔵|不動|観音|霊廟|墓所/,,
0000007961,永楽屋 細辻伊兵衛商店 祇園店,エイラクヤ ホソツジイヘエショウテン ギオンミセ,에이라쿠야 호소쓰지이헤에쇼텐 기온미세,official_kana_transliteration,auto_needs_review,京都市東山区,京都府京都市東山区四条通大和大路東入祇園町北側242,35.003965,135.773389,excluded_non_primary,retail_or_rental_service,name matched /レンタル|貸衣装|着付け|変身|商店|ショップ|ショッピング|土産|専門店|工房|スタジオ|手創り体験|手作り体験|京あるき|サイクル|店($|[（(])/,,
0000000109,高台寺,コウダイジ,코다이지,official_kana_transliteration,auto_needs_review,京都市東山区,京都府京都市東山区高台寺下河原町526,35.000778,135.781113,primary,religious_site,name matched /寺|神社|神宮|天満宮|大社|地蔵|不動|観音|霊廟|墓所/,,
0000007959,株式会社七條甘春堂 且坐喫茶,シチジョウカンシュンドウ シャザキッサ,시치조칸슌도 샤자키사,official_kana_transliteration,auto_needs_review,京都市東山区,京都府京都市東山区七条通本町東入西之門町551番地,34.989422,135.770832,excluded_non_primary,food_or_beverage,name matched /料理|食堂|レストラン|カフェ|喫茶|茶屋|料亭|割烹|菓子|菓寮|餅|豆腐|とうふ|納豆|漬物|パン|珈琲|コーヒー|ワイン|ビール|酒造|醤油|グリル|洋食|そば|うどん|寿司|鮨|焼肉|ラーメン|スイーツ|甘味|御すぐき|本舗|茶房|食文化|食事処/,,
0000003469,清水寺,キヨミズデラ,기요미즈데라(청수사),curated_standard_translation,reviewed,京都市東山区,京都府京都市東山区清水1丁目294,34.994868,135.785048,primary,religious_site,name matched /寺|神社|神宮|天満宮|大社|地蔵|不動|観音|霊廟|墓所/,,
0000009516,霊雲院,レイウンイン,레이운인,official_kana_transliteration,auto_needs_review,京都市東山区,京都府京都市東山区本町15丁目801,34.978352,135.771705,primary,religious_site,religious suffix confirmed by description,,
0000000110,京都霊山護國神社,キョウトリョウゼンゴコクジンジャ,교토료젠고코쿠신사,official_kana_transliteration,auto_needs_review,京都市東山区,京都府京都市東山区清閑寺霊山町1,34.999997,135.782923,primary,religious_site,name matched /寺|神社|神宮|天満宮|大社|地蔵|不動|観音|霊廟|墓所/,,
0000008719,藤平陶芸有限会社,フジヒラトウゲイ,후지히라토게이,official_kana_transliteration,auto_needs_review,京都市東山区,京都府京都市東山区五条橋東六丁目503,34.994526,135.775808,needs_review,ambiguous_facility,no high-confidence place or exclusion rule matched,,
0000000117,いもぼう平野家本家,イモボウヒラノヤホンケ,이모보히라노야혼케,official_kana_transliteration,auto_needs_review,京都市東山区,京都府京都市東山区祇園円山公園内（八坂神社北側）,35.004429,135.779697,needs_review,ambiguous_facility,no high-confidence place or exclusion rule matched,,
0000006669,ぎおん畑中,ギオンハタナカ,기온하타나카,official_kana_transliteration,auto_needs_review,京都市東山区,京都府京都市東山区祇園町南側505（八坂神社南門前）,35.002349,135.778888,excluded_non_primary,commercial_business,commercial operation confirmed by description,,
0000003247,来迎院,ライゴウイン,라이고인,official_kana_transliteration,auto_needs_review,京都市東山区,京都府京都市東山区泉涌寺山内町33,34.979019,135.780646,primary,religious_site,religious suffix confirmed by description,,
0000009617,知恩院和順会館 花水庵,チオインワジュンカイカン カスイアン,치오인와준카이칸 카스이안,official_kana_transliteration,auto_needs_review,京都市東山区,京都府京都市東山区林下町400-2 知恩院和順会館地下1階,35.004571,135.780369,excluded_non_primary,commercial_business,commercial operation confirmed by description,,
0000003246,茶寮都路里,サリョウツジリ,사료쓰지리,official_kana_transliteration,auto_needs_review,京都市東山区,京都府京都市東山区祇園町南側573-3,35.003706,135.774495,excluded_non_primary,commercial_business,commercial operation confirmed by description,,
0000009639,京都和心館（ワックジャパン）,キョウトワシンカン（ワックジャパン）,교토와신칸(와쿠자판),official_kana_transliteration,auto_needs_review,京都市東山区,京都府京都市東山区大和大路通り正面下ル大和大路1丁目553-3,34.990745,135.771084,excluded_non_primary,food_or_beverage,name matched /料理|食堂|レストラン|カフェ|喫茶|茶屋|料亭|割烹|菓子|菓寮|餅|豆腐|とうふ|納豆|漬物|パン|珈琲|コーヒー|ワイン|ビール|酒造|醤油|グリル|洋食|そば|うどん|寿司|鮨|焼肉|ラーメン|スイーツ|甘味|御すぐき|本舗|茶房|食文化|食事処/,,
