anchor_id,city_id,city_name,country_code,anchor_name,anchor_name_local,anchor_name_en,anchor_type,official_source_type,source_dataset,source_record_id,source_url,description,category,address,lat,lng,start_date,end_date,price_text,evidence_text,confidence,review_status,match_ready,notes
official-fukuoka-yatai-cluster,jp-fukuoka,후쿠오카,JP,후쿠오카 야타이,福岡市 屋台,Fukuoka Yatai,place_cluster,official_yatai_cluster,fukuoka_yatai_curated,cluster,https://data.bodik.jp/dataset/401307_yataiopendata,福岡市 official yatai inventory with 107 deduplicated stalls.,야타이/포장마차,福岡県福岡市,,,,,,福岡市 official yatai dataset / 107 stalls / deduplicated by 屋台ID,0.98,accepted,true,Place-based aggregate anchor for Fukuoka yatai area/stall network; product format such as tour is not used as the analysis unit.
official-fukuoka-yatai-122472,jp-fukuoka,후쿠오카,JP,寅政,寅政,Toramasa,food_place,official_yatai,fukuoka_yatai_curated,122472,https://yokanavi.com/yatai/122472/,香椎の屋台ならココ！一度出向けば、料理と大将にハマる事間違いなし！,ラーメン/焼きラーメン/焼き鳥/おでん/餃子,福岡県福岡市東区千早5-9,33.6555599,130.4402527,,,3000,寅政 / ラーメン/焼きラーメン/焼き鳥/おでん/餃子 / その他 / 香椎の屋台ならココ！一度出向けば、料理と大将にハマる事間違いなし！,0.95,accepted,true,Fukuoka official yatai dataset; deduplicated by 屋台ID
official-fukuoka-yatai-122473,jp-fukuoka,후쿠오카,JP,おけい,おけい,Okei,food_place,official_yatai,fukuoka_yatai_curated,122473,https://yokanavi.com/yatai/122473/,オーソドックスな料理をさりげなくがモットー,ラーメン/焼き鳥/おでん,福岡県福岡市博多区中洲5,33.5948713,130.4041006,,,3000,おけい / ラーメン/焼き鳥/おでん / 中洲 / オーソドックスな料理をさりげなくがモットー,0.95,accepted,true,Fukuoka official yatai dataset; deduplicated by 屋台ID
official-fukuoka-yatai-122474,jp-fukuoka,후쿠오카,JP,小島商店,小島商店,Kojima shoten,food_place,official_yatai,fukuoka_yatai_curated,122474,https://yokanavi.com/yatai/122474/,小島商店は、接客、丁寧な調理、屋台の雰囲気を大事にする屋台です。,ラーメン/焼きラーメン/おでん,福岡県福岡市博多区中洲1-8（清流公園内）,33.5903239,130.4083572,,,3000,小島商店 / ラーメン/焼きラーメン/おでん / 中洲 / 小島商店は、接客、丁寧な調理、屋台の雰囲気を大事にする屋台です。,0.95,accepted,true,Fukuoka official yatai dataset; deduplicated by 屋台ID
official-fukuoka-yatai-122475,jp-fukuoka,후쿠오카,JP,伸龍,伸龍,Shinryu,food_place,official_yatai,fukuoka_yatai_curated,122475,https://yokanavi.com/yatai/122475/,中洲で30年以上。親子で仲良く元気に営業しています。,ラーメン/焼きラーメン/焼き鳥/おでん/餃子,福岡県福岡市博多区中洲1-8（清流公園内）,33.5904483,130.4081805,,,2000,伸龍 / ラーメン/焼きラーメン/焼き鳥/おでん/餃子 / 中洲 / 中洲で30年以上。親子で仲良く元気に営業しています。,0.95,accepted,true,Fukuoka official yatai dataset; deduplicated by 屋台ID
official-fukuoka-yatai-122476,jp-fukuoka,후쿠오카,JP,武ちゃん,武ちゃん,Takechan,food_place,official_yatai,fukuoka_yatai_curated,122476,https://yokanavi.com/yatai/122476/,餃子屋で修業した大将が作る絶品餃子を是非ご賞味あれ！,餃子,福岡県福岡市博多区中洲1-8（清流公園内）,33.5901946,130.408607,,,1500,武ちゃん / 餃子 / 中洲 / 餃子屋で修業した大将が作る絶品餃子を是非ご賞味あれ！,0.95,accepted,true,Fukuoka official yatai dataset; deduplicated by 屋台ID
official-fukuoka-yatai-122477,jp-fukuoka,후쿠오카,JP,呑龍,呑龍,Donryu,food_place,official_yatai,fukuoka_yatai_curated,122477,https://yokanavi.com/yatai/122477/,お茶目な大将と優しい女将さんのノスタルジックな正統派屋台,ラーメン/焼き鳥/おでん,福岡県福岡市博多区中洲1-8（清流公園内）,33.5900745,130.4087262,,,2500,呑龍 / ラーメン/焼き鳥/おでん / 中洲 / お茶目な大将と優しい女将さんのノスタルジックな正統派屋台,0.95,accepted,true,Fukuoka official yatai dataset; deduplicated by 屋台ID
official-fukuoka-yatai-122478,jp-fukuoka,후쿠오카,JP,ひでちゃん,ひでちゃん,Hidechan,food_place,official_yatai,fukuoka_yatai_curated,122478,https://yokanavi.com/yatai/122478/,博多の夜は屋台の明かりから……,ラーメン/焼きラーメン/焼き鳥/餃子,福岡県福岡市博多区中洲1-8（清流公園内）,33.590221,130.4085471,,,1500,ひでちゃん / ラーメン/焼きラーメン/焼き鳥/餃子 / 中洲 / 博多の夜は屋台の明かりから……,0.95,accepted,true,Fukuoka official yatai dataset; deduplicated by 屋台ID
official-fukuoka-yatai-122480,jp-fukuoka,후쿠오카,JP,丸十,丸十,Marujyu,food_place,official_yatai,fukuoka_yatai_curated,122480,https://yokanavi.com/yatai/122480/,エネルギッシュな従業員がおいしさを倍増させてくれる,ラーメン/焼きラーメン/焼き鳥/おでん/餃子,福岡県福岡市博多区中洲1-8（清流公園内）,33.5902508,130.4084427,,,2500,丸十 / ラーメン/焼きラーメン/焼き鳥/おでん/餃子 / 中洲 / エネルギッシュな従業員がおいしさを倍増させてくれる,0.95,accepted,true,Fukuoka official yatai dataset; deduplicated by 屋台ID
official-fukuoka-yatai-122481,jp-fukuoka,후쿠오카,JP,峰ちゃん,峰ちゃん,Minechan,food_place,official_yatai,fukuoka_yatai_curated,122481,https://yokanavi.com/yatai/122481/,中洲を見ながら飲む酒は絶品！,焼き鳥/おでん/その他,福岡県福岡市博多区中洲1-8（清流公園内）,33.5901751,130.4086295,,,3000,峰ちゃん / 焼き鳥/おでん/その他 / 中洲 / 中洲を見ながら飲む酒は絶品！,0.95,accepted,true,Fukuoka official yatai dataset; deduplicated by 屋台ID
official-fukuoka-yatai-122483,jp-fukuoka,후쿠오카,JP,やまちゃん,やまちゃん,Yamachan,food_place,official_yatai,fukuoka_yatai_curated,122483,https://yokanavi.com/yatai/122483/,威勢のいい声につられてつい暖簾をくぐりたくなる屋台,ラーメン/焼きラーメン/焼き鳥/おでん/餃子/その他,福岡県福岡市博多区中洲1,33.5903136,130.4084119,,,2000,やまちゃん / ラーメン/焼きラーメン/焼き鳥/おでん/餃子/その他 / 中洲 / 威勢のいい声につられてつい暖簾をくぐりたくなる屋台,0.95,accepted,true,Fukuoka official yatai dataset; deduplicated by 屋台ID
official-fukuoka-yatai-122484,jp-fukuoka,후쿠오카,JP,笑平,笑平,Shohei,food_place,official_yatai,fukuoka_yatai_curated,122484,https://yokanavi.com/yatai/122484/,心熱い大将のこだわりと、お客さんへの愛情を感じる屋台,ラーメン/焼きラーメン/焼き鳥/おでん/餃子/中華料理/韓国料理,福岡県福岡市博多区祇園町1-30,33.5905814,130.413007,,,2000,笑平 / ラーメン/焼きラーメン/焼き鳥/おでん/餃子/中華料理/韓国料理 / 中洲 / 心熱い大将のこだわりと、お客さんへの愛情を感じる屋台,0.95,accepted,true,Fukuoka official yatai dataset; deduplicated by 屋台ID
official-fukuoka-yatai-122485,jp-fukuoka,후쿠오카,JP,番笠,番笠,Bangasa,food_place,official_yatai,fukuoka_yatai_curated,122485,https://yokanavi.com/yatai/122485/,大大将と若大将親子二代の和気あいあいとした屋台,ラーメン/焼き鳥/おでん,福岡県福岡市博多区川端町3,33.5920499,130.4103559,,,2000,番笠 / ラーメン/焼き鳥/おでん / 中洲 / 大大将と若大将親子二代の和気あいあいとした屋台,0.95,accepted,true,Fukuoka official yatai dataset; deduplicated by 屋台ID
official-fukuoka-yatai-122486,jp-fukuoka,후쿠오카,JP,ぴょん吉,ぴょん吉,Pyonkichi,food_place,official_yatai,fukuoka_yatai_curated,122486,https://yokanavi.com/yatai/122514/,鴛夫婦ふたりでつくってきた暖簾が温かさを増す屋台,ラーメン/焼き鳥/おでん,福岡県福岡市博多区祇園町1-30,33.5883368,130.4011849,,,3000,ぴょん吉 / ラーメン/焼き鳥/おでん / 中洲 / 鴛夫婦ふたりでつくってきた暖簾が温かさを増す屋台,0.95,accepted,true,Fukuoka official yatai dataset; deduplicated by 屋台ID
official-fukuoka-yatai-122487,jp-fukuoka,후쿠오카,JP,KENZO,KENZO,KENZO,food_place,official_yatai,fukuoka_yatai_curated,122487,https://yokanavi.com/yatai/122487/,若い大将の軽快なトークで酒がすすむぞ！,ラーメン/焼きラーメン/焼き鳥/おでん,福岡県福岡市博多区中洲5-6,33.5948564,130.4040861,,,3000,KENZO / ラーメン/焼きラーメン/焼き鳥/おでん / 中洲 / 若い大将の軽快なトークで酒がすすむぞ！,0.95,accepted,true,Fukuoka official yatai dataset; deduplicated by 屋台ID
official-fukuoka-yatai-122489,jp-fukuoka,후쿠오카,JP,とん吉,とん吉,Tonkichi,food_place,official_yatai,fukuoka_yatai_curated,122489,https://yokanavi.com/yatai/122489/,女将さんが温かく出迎えてくれます,ラーメン/焼きラーメン/天ぷら/焼き鳥/おでん,福岡県福岡市博多区中洲中島町1,33.5948478,130.4033336,,,2000,とん吉 / ラーメン/焼きラーメン/天ぷら/焼き鳥/おでん / 中洲 / 女将さんが温かく出迎えてくれます,0.95,accepted,true,Fukuoka official yatai dataset; deduplicated by 屋台ID
official-fukuoka-yatai-122490,jp-fukuoka,후쿠오카,JP,風来けん坊,風来けん坊,Furaikenbo,food_place,official_yatai,fukuoka_yatai_curated,122490,https://yokanavi.com/yatai/122490/,陽気なママを囲むように並ぶ席で盛り上がる屋台,ラーメン/焼きラーメン/焼き鳥/おでん,福岡県福岡市博多区中洲5-5,33.5947965,130.4040158,,,3000,風来けん坊 / ラーメン/焼きラーメン/焼き鳥/おでん / 中洲 / 陽気なママを囲むように並ぶ席で盛り上がる屋台,0.95,accepted,true,Fukuoka official yatai dataset; deduplicated by 屋台ID
official-fukuoka-yatai-122493,jp-fukuoka,후쿠오카,JP,宗,宗,Mune,food_place,official_yatai,fukuoka_yatai_curated,122493,https://yokanavi.com/yatai/122493/,大将は大の野球ファン！！,ラーメン/焼きラーメン/おでん/餃子/中華料理,福岡県福岡市中央区渡辺通4,33.5875734,130.4012111,,,2000,宗 / ラーメン/焼きラーメン/おでん/餃子/中華料理 / 天神 / 大将は大の野球ファン！！,0.95,accepted,true,Fukuoka official yatai dataset; deduplicated by 屋台ID
official-fukuoka-yatai-122494,jp-fukuoka,후쿠오카,JP,ともちゃん,ともちゃん,Tomochan,food_place,official_yatai,fukuoka_yatai_curated,122494,https://yokanavi.com/yatai/122494/,ラーメン、焼き鳥、おでん。料理一つ一つにこだわりのある屋台。,ラーメン/焼きラーメン/焼き鳥/おでん/その他,福岡県福岡市中央区天神1-14,33.592901,130.4008904,,,4000,ともちゃん / ラーメン/焼きラーメン/焼き鳥/おでん/その他 / 天神 / ラーメン、焼き鳥、おでん。料理一つ一つにこだわりのある屋台。,0.95,accepted,true,Fukuoka official yatai dataset; deduplicated by 屋台ID
official-fukuoka-yatai-122495,jp-fukuoka,후쿠오카,JP,こがちゃん,こがちゃん,Kogachan,food_place,official_yatai,fukuoka_yatai_curated,122495,https://yokanavi.com/yatai/122495/,子供の時分から手伝ってたという若大将と女将の温かさが屋台ににじみ出てほっこり！,ラーメン/焼きラーメン/焼き鳥/おでん/餃子/中華料理,福岡県福岡市中央区渡辺通4-1,33.58547,130.403227,,,3000,こがちゃん / ラーメン/焼きラーメン/焼き鳥/おでん/餃子/中華料理 / 天神 / 子供の時分から手伝ってたという若大将と女将の温かさが屋台ににじみ出てほっこり！,0.95,accepted,true,Fukuoka official yatai dataset; deduplicated by 屋台ID
official-fukuoka-yatai-122496,jp-fukuoka,후쿠오카,JP,屋台けいじ,屋台けいじ,Keiji,food_place,official_yatai,fukuoka_yatai_curated,122496,https://yokanavi.com/yatai/122473/,イケメン店長の作る料理は、男子も女子もみんな夢中,ラーメン/焼きラーメン/焼き鳥/おでん/餃子,福岡県福岡市中央区赤坂1,33.5948713,130.4041006,,,3000,屋台けいじ / ラーメン/焼きラーメン/焼き鳥/おでん/餃子 / その他 / イケメン店長の作る料理は、男子も女子もみんな夢中,0.95,accepted,true,Fukuoka official yatai dataset; deduplicated by 屋台ID
official-fukuoka-yatai-122497,jp-fukuoka,후쿠오카,JP,屋台バー えびちゃん,屋台バー えびちゃん,Ebichan,food_place,official_yatai,fukuoka_yatai_curated,122497,https://yokanavi.com/yatai/122497/,立ち居振る舞いが粋な二代目バーテンダー,おでん/洋食・西洋料理/その他,福岡県福岡市中央区天神4-2-1,33.5932073,130.400775,,,2120,屋台バー えびちゃん / おでん/洋食・西洋料理/その他 / 天神 / 立ち居振る舞いが粋な二代目バーテンダー,0.95,accepted,true,Fukuoka official yatai dataset; deduplicated by 屋台ID
official-fukuoka-yatai-122498,jp-fukuoka,후쿠오카,JP,うまっつら,うまっつら,Umattsura,food_place,official_yatai,fukuoka_yatai_curated,122498,https://yokanavi.com/yatai/122498/,お客様同士の会話も楽しいダンディーなマスターのお店,ラーメン/焼きラーメン/焼き鳥/おでん/洋食・西洋料理/中華料理,福岡県福岡市中央区赤坂1-1,33.585282,130.3912501,,,2000,うまっつら / ラーメン/焼きラーメン/焼き鳥/おでん/洋食・西洋料理/中華料理 / その他 / お客様同士の会話も楽しいダンディーなマスターのお店,0.95,accepted,true,Fukuoka official yatai dataset; deduplicated by 屋台ID
official-fukuoka-yatai-122501,jp-fukuoka,후쿠오카,JP,さよ子,さよ子,Sayoko,food_place,official_yatai,fukuoka_yatai_curated,122501,https://yokanavi.com/yatai/122501/,気さくなお母さんが笑顔でお出迎え！！,焼き鳥/おでん,福岡県福岡市中央区長浜3-14,33.5930667,130.3874582,,,3000,さよ子 / 焼き鳥/おでん / 長浜 / 気さくなお母さんが笑顔でお出迎え！！,0.95,accepted,true,Fukuoka official yatai dataset; deduplicated by 屋台ID
official-fukuoka-yatai-122502,jp-fukuoka,후쿠오카,JP,忠助,忠助,Chusuke,food_place,official_yatai,fukuoka_yatai_curated,122502,https://yokanavi.com/yatai/122502/,優しさと情熱の間にあるような屋台,ラーメン/焼き鳥/おでん/餃子,福岡県福岡市中央区天神4-2-1,33.5930791,130.4005487,,,2000,忠助 / ラーメン/焼き鳥/おでん/餃子 / 天神 / 優しさと情熱の間にあるような屋台,0.95,accepted,true,Fukuoka official yatai dataset; deduplicated by 屋台ID
official-fukuoka-yatai-122503,jp-fukuoka,후쿠오카,JP,あほたれーの,あほたれーの,Ahotare-no,food_place,official_yatai,fukuoka_yatai_curated,122503,https://yokanavi.com/yatai/122503/,仕入れによって変わる新鮮野菜を使ったメニューは要チェック！,ラーメン/焼きラーメン/天ぷら/焼き鳥/おでん/餃子,福岡県福岡市中央区天神1-4-1,33.5884627,130.4010713,,,2000,あほたれーの / ラーメン/焼きラーメン/天ぷら/焼き鳥/おでん/餃子 / 天神 / 仕入れによって変わる新鮮野菜を使ったメニューは要チェック！,0.95,accepted,true,Fukuoka official yatai dataset; deduplicated by 屋台ID
official-fukuoka-yatai-122504,jp-fukuoka,후쿠오카,JP,喜柳,喜柳,Kiryu,food_place,official_yatai,fukuoka_yatai_curated,122504,https://yokanavi.com/yatai/122504/,福岡の屋台で一番メニューが多く、福岡の食材を使ったオリジナルメニューも豊富。,ラーメン/焼きラーメン/おでん/餃子/洋食・西洋料理,福岡県福岡市中央区天神1-4-1,33.5884203,130.4011203,,,2500,喜柳 / ラーメン/焼きラーメン/おでん/餃子/洋食・西洋料理 / 天神 / 福岡の屋台で一番メニューが多く、福岡の食材を使ったオリジナルメニューも豊富。,0.95,accepted,true,Fukuoka official yatai dataset; deduplicated by 屋台ID
official-fukuoka-yatai-122506,jp-fukuoka,후쿠오카,JP,さつまや,さつまや,Satsumaya,food_place,official_yatai,fukuoka_yatai_curated,122506,https://yokanavi.com/yatai/122506/,夫婦でやってるアットホームな屋台！,ラーメン/焼きラーメン/焼き鳥/おでん,福岡県福岡市中央区天神1-6-8,33.5892789,130.4003746,,,2000,さつまや / ラーメン/焼きラーメン/焼き鳥/おでん / 天神 / 夫婦でやってるアットホームな屋台！,0.95,accepted,true,Fukuoka official yatai dataset; deduplicated by 屋台ID
official-fukuoka-yatai-122507,jp-fukuoka,후쿠오카,JP,蜃気楼,蜃気楼,Shinkiro,food_place,official_yatai,fukuoka_yatai_curated,122507,https://yokanavi.com/yatai/122507/,外国人さんが意外に多い屋台、ヨーロッパからアジアまで世界が屋台でつながってます,ラーメン/焼き鳥/おでん,福岡県福岡市中央区渡辺通4,33.5858309,130.4029378,,,1500,蜃気楼 / ラーメン/焼き鳥/おでん / 天神 / 外国人さんが意外に多い屋台、ヨーロッパからアジアまで世界が屋台でつながってます,0.95,accepted,true,Fukuoka official yatai dataset; deduplicated by 屋台ID
official-fukuoka-yatai-122508,jp-fukuoka,후쿠오카,JP,ちょうちん,ちょうちん,Chochin,food_place,official_yatai,fukuoka_yatai_curated,122508,https://yokanavi.com/yatai/122508/,島人の大将が作る沖縄風料理,ラーメン/焼きラーメン/餃子/その他,福岡県福岡市中央区天神1-6-8,33.5893462,130.400364,,,2000,ちょうちん / ラーメン/焼きラーメン/餃子/その他 / 天神 / 島人の大将が作る沖縄風料理,0.95,accepted,true,Fukuoka official yatai dataset; deduplicated by 屋台ID
official-fukuoka-yatai-122509,jp-fukuoka,후쿠오카,JP,なかちゃん,なかちゃん,Nakachan,food_place,official_yatai,fukuoka_yatai_curated,122509,https://yokanavi.com/yatai/122509/,豊富なメニューと屈託のない笑顔で頑張っています。,ラーメン/焼きラーメン/焼き鳥/おでん/餃子/洋食・西洋料理,福岡県福岡市中央区天神2-1-1,33.5890526,130.3999993,,,2500,なかちゃん / ラーメン/焼きラーメン/焼き鳥/おでん/餃子/洋食・西洋料理 / 天神 / 豊富なメニューと屈託のない笑顔で頑張っています。,0.95,accepted,true,Fukuoka official yatai dataset; deduplicated by 屋台ID
official-fukuoka-yatai-122510,jp-fukuoka,후쿠오카,JP,永ちゃん,永ちゃん,Nagachan,food_place,official_yatai,fukuoka_yatai_curated,122510,https://yokanavi.com/yatai/122510/,親子の掛け合いが面白い人気屋台 場所も中心とあって子供連れのお客の常連も,ラーメン/焼きラーメン/天ぷら/焼き鳥/おでん/餃子,福岡県福岡市中央区天神1-6-8,33.5895765,130.4000588,,,2500,永ちゃん / ラーメン/焼きラーメン/天ぷら/焼き鳥/おでん/餃子 / 天神 / 親子の掛け合いが面白い人気屋台 場所も中心とあって子供連れのお客の常連も,0.95,accepted,true,Fukuoka official yatai dataset; deduplicated by 屋台ID
official-fukuoka-yatai-122511,jp-fukuoka,후쿠오카,JP,姫ちゃん,姫ちゃん,Himechan,food_place,official_yatai,fukuoka_yatai_curated,122511,https://yokanavi.com/yatai/122511/,穏やかな大将とイケメン若大将のお店料理の腕は自信あり！,ラーメン/焼き鳥/おでん/餃子/中華料理,福岡県福岡市中央区渡辺通5-24-22,33.5880118,130.4015949,,,1500,姫ちゃん / ラーメン/焼き鳥/おでん/餃子/中華料理 / 天神 / 穏やかな大将とイケメン若大将のお店料理の腕は自信あり！,0.95,accepted,true,Fukuoka official yatai dataset; deduplicated by 屋台ID
official-fukuoka-yatai-122512,jp-fukuoka,후쿠오카,JP,まるよし,まるよし,Maruyoshi,food_place,official_yatai,fukuoka_yatai_curated,122512,https://yokanavi.com/yatai/122512/,やさしい感じのマスターのボキャブラリー豊富なトークもイイ！,ラーメン/焼きラーメン/焼き鳥/おでん/餃子,福岡県福岡市中央区渡辺通5-24-22,33.5880479,130.401669,,,2500,まるよし / ラーメン/焼きラーメン/焼き鳥/おでん/餃子 / 天神 / やさしい感じのマスターのボキャブラリー豊富なトークもイイ！,0.95,accepted,true,Fukuoka official yatai dataset; deduplicated by 屋台ID
official-fukuoka-yatai-122513,jp-fukuoka,후쿠오카,JP,屋台鬼多郎天神店,屋台鬼多郎天神店,Kitaro Tenjinten,food_place,official_yatai,fukuoka_yatai_curated,122513,https://yokanavi.com/yatai/122513/,沖縄風ボーイが笑顔でお出迎え 親近感が湧く屋台で今夜は酔っぱらい！,ラーメン/焼きラーメン/焼き鳥/おでん/餃子/中華料理,福岡県福岡市中央区天神1-4-1,33.5884866,130.4010511,,,2000,屋台鬼多郎天神店 / ラーメン/焼きラーメン/焼き鳥/おでん/餃子/中華料理 / 天神 / 沖縄風ボーイが笑顔でお出迎え 親近感が湧く屋台で今夜は酔っぱらい！,0.95,accepted,true,Fukuoka official yatai dataset; deduplicated by 屋台ID
official-fukuoka-yatai-122514,jp-fukuoka,후쿠오카,JP,屋台屋ぴょんきち,屋台屋ぴょんきち,Yataiya Pyonkichi,food_place,official_yatai,fukuoka_yatai_curated,122514,https://yokanavi.com/yatai/122514/,若いスタッフのエネルギーではちきれんばかりのパワーを感じる,ラーメン/焼きラーメン/焼き鳥/おでん/餃子/韓国料理,福岡県福岡市中央区天神1-4-1,33.5883368,130.4011849,,,2000,屋台屋ぴょんきち / ラーメン/焼きラーメン/焼き鳥/おでん/餃子/韓国料理 / 天神 / 若いスタッフのエネルギーではちきれんばかりのパワーを感じる,0.95,accepted,true,Fukuoka official yatai dataset; deduplicated by 屋台ID
official-fukuoka-yatai-122515,jp-fukuoka,후쿠오카,JP,雲仙,雲仙,Unzen,food_place,official_yatai,fukuoka_yatai_curated,122515,https://yokanavi.com/yatai/122515/,人気のプラモデラーのマスター 著名人にも愛される屋台です,ラーメン/焼きラーメン/焼き鳥/おでん/餃子/洋食・西洋料理,福岡県福岡市中央区天神2-13-1,33.5919869,130.3975098,,,2500,雲仙 / ラーメン/焼きラーメン/焼き鳥/おでん/餃子/洋食・西洋料理 / 天神 / 人気のプラモデラーのマスター 著名人にも愛される屋台です,0.95,accepted,true,Fukuoka official yatai dataset; deduplicated by 屋台ID
official-fukuoka-yatai-122516,jp-fukuoka,후쿠오카,JP,河ちゃん,河ちゃん,Kawachan,food_place,official_yatai,fukuoka_yatai_curated,122516,https://yokanavi.com/yatai/122516/,若い大将には若い仲間が集う、そんな屋台がココ！,ラーメン/焼き鳥/餃子,福岡県福岡市中央区天神2,33.5916016,130.3985166,,,2500,河ちゃん / ラーメン/焼き鳥/餃子 / 天神 / 若い大将には若い仲間が集う、そんな屋台がココ！,0.95,accepted,true,Fukuoka official yatai dataset; deduplicated by 屋台ID
official-fukuoka-yatai-122517,jp-fukuoka,후쿠오카,JP,天一,天一,Tenichi,food_place,official_yatai,fukuoka_yatai_curated,122517,https://yokanavi.com/yatai/122517/,1962年創業の福岡でも歴史の長い人気の屋台 ほとんど常連さんで埋まる席なので空いてたら是非,天ぷら/焼き鳥/おでん/その他,福岡県福岡市中央区天神1-12,33.5917342,130.3990517,,,2500,天一 / 天ぷら/焼き鳥/おでん/その他 / 天神 / 1962年創業の福岡でも歴史の長い人気の屋台 ほとんど常連さんで埋まる席なので空いてたら是非,0.95,accepted,true,Fukuoka official yatai dataset; deduplicated by 屋台ID
official-fukuoka-yatai-122519,jp-fukuoka,후쿠오카,JP,てっちゃん,てっちゃん,Tetchan,food_place,official_yatai,fukuoka_yatai_curated,122519,https://yokanavi.com/yatai/122519/,エネルギッシュなトークで観光客にも常連にも大人気店です。,ラーメン/焼きラーメン/焼き鳥/おでん/餃子/洋食・西洋料理/中華料理,福岡県福岡市中央区天神2,33.5883803,130.401157,,,1500,てっちゃん / ラーメン/焼きラーメン/焼き鳥/おでん/餃子/洋食・西洋料理/中華料理 / 天神 / エネルギッシュなトークで観光客にも常連にも大人気店です。,0.95,accepted,true,Fukuoka official yatai dataset; deduplicated by 屋台ID
official-fukuoka-yatai-122520,jp-fukuoka,후쿠오카,JP,那須乃大八,那須乃大八,Nasunodaihachi,food_place,official_yatai,fukuoka_yatai_curated,122520,https://yokanavi.com/yatai/122520/,楽しい会話と美味しいお酒 観光客も多く訪れる屋台,ラーメン/焼き鳥/おでん,福岡県福岡市中央区天神2-12-1,33.5917668,130.3984787,,,2500,那須乃大八 / ラーメン/焼き鳥/おでん / 天神 / 楽しい会話と美味しいお酒 観光客も多く訪れる屋台,0.95,accepted,true,Fukuoka official yatai dataset; deduplicated by 屋台ID
official-fukuoka-yatai-122521,jp-fukuoka,후쿠오카,JP,なんしようと屋,なんしようと屋,Nanshiyotoya,food_place,official_yatai,fukuoka_yatai_curated,122521,https://yokanavi.com/yatai/122521/,夫婦で切り盛りしている、昔ながらのオーソドックスな屋台です。,ラーメン/焼きラーメン/焼き鳥/おでん,福岡県福岡市中央区天神1-12-7（福岡ダイヤモンドビル前）,33.5916529,130.3990852,,,2000,なんしようと屋 / ラーメン/焼きラーメン/焼き鳥/おでん / 天神 / 夫婦で切り盛りしている、昔ながらのオーソドックスな屋台です。,0.95,accepted,true,Fukuoka official yatai dataset; deduplicated by 屋台ID
official-fukuoka-yatai-122522,jp-fukuoka,후쿠오카,JP,白龍,白龍,Hakuryu,food_place,official_yatai,fukuoka_yatai_curated,122522,https://yokanavi.com/yatai/122522/,創業昭和32年の福岡でも3本の指に入る古参の屋台！伝統の味を親子三代に渡って守り抜いています。,ラーメン/焼き鳥/おでん/餃子,福岡県福岡市中央区天神1-12,33.5920248,130.3988355,,,1500,白龍 / ラーメン/焼き鳥/おでん/餃子 / 天神 / 創業昭和32年の福岡でも3本の指に入る古参の屋台！伝統の味を親子三代に渡って守り抜いています。,0.95,accepted,true,Fukuoka official yatai dataset; deduplicated by 屋台ID
official-fukuoka-yatai-122524,jp-fukuoka,후쿠오카,JP,まみちゃん,まみちゃん,Mamichan,food_place,official_yatai,fukuoka_yatai_curated,122524,https://yokanavi.com/yatai/122524/,また行きたくなる屋台,ラーメン/焼きラーメン/おでん/餃子/中華料理,福岡県福岡市中央区天神2-13-1,33.5920555,130.3977427,,,2500,まみちゃん / ラーメン/焼きラーメン/おでん/餃子/中華料理 / 天神 / また行きたくなる屋台,0.95,accepted,true,Fukuoka official yatai dataset; deduplicated by 屋台ID
official-fukuoka-yatai-122525,jp-fukuoka,후쿠오카,JP,玄海,玄海,Genkai,food_place,official_yatai,fukuoka_yatai_curated,122525,https://yokanavi.com/yatai/122525/,現存する屋台の中でもとびきり古い！,天ぷら,福岡県福岡市中央区天神2-14-13,33.5912149,130.3959427,,,2500,玄海 / 天ぷら / 天神 / 現存する屋台の中でもとびきり古い！,0.95,accepted,true,Fukuoka official yatai dataset; deduplicated by 屋台ID
official-fukuoka-yatai-122526,jp-fukuoka,후쿠오카,JP,小金ちゃん,小金ちゃん,Kokinchan,food_place,official_yatai,fukuoka_yatai_curated,122526,https://yokanavi.com/yatai/122526/,1968年創業。焼きラーメンの元祖として親しまれています。,ラーメン/焼きラーメン/焼き鳥/おでん/餃子/中華料理,福岡県福岡市中央区天神2-14-13,33.5911817,130.3957015,,,1500,小金ちゃん / ラーメン/焼きラーメン/焼き鳥/おでん/餃子/中華料理 / 天神 / 1968年創業。焼きラーメンの元祖として親しまれています。,0.95,accepted,true,Fukuoka official yatai dataset; deduplicated by 屋台ID
official-fukuoka-yatai-122527,jp-fukuoka,후쿠오카,JP,対州軒,対州軒,Taishuken,food_place,official_yatai,fukuoka_yatai_curated,122527,https://yokanavi.com/yatai/122527/,博多屋台の中でもとびきり若い大将と女将（母）が切り盛りする屋台,ラーメン/焼きラーメン/天ぷら/おでん,福岡県福岡市中央区天神2-14-13,33.5910687,130.3957014,,,2500,対州軒 / ラーメン/焼きラーメン/天ぷら/おでん / 天神 / 博多屋台の中でもとびきり若い大将と女将（母）が切り盛りする屋台,0.95,accepted,true,Fukuoka official yatai dataset; deduplicated by 屋台ID
official-fukuoka-yatai-122528,jp-fukuoka,후쿠오카,JP,たかちゃん,たかちゃん,Takachan,food_place,official_yatai,fukuoka_yatai_curated,122528,https://yokanavi.com/yatai/122528/,親子でしっかり切り盛り会話も楽しい屋台,ラーメン/焼きラーメン/焼き鳥/おでん/中華料理,福岡県福岡市中央区天神2-14-13,33.591214,130.3958602,,,2500,たかちゃん / ラーメン/焼きラーメン/焼き鳥/おでん/中華料理 / 天神 / 親子でしっかり切り盛り会話も楽しい屋台,0.95,accepted,true,Fukuoka official yatai dataset; deduplicated by 屋台ID
official-fukuoka-yatai-122529,jp-fukuoka,후쿠오카,JP,八方亭,八方亭,Happotei,food_place,official_yatai,fukuoka_yatai_curated,122529,https://yokanavi.com/yatai/122529/,ひょうきんで優しいマスターが目印の屋台,ラーメン/焼きラーメン/焼き鳥/おでん,福岡県福岡市中央区天神2-14-13,33.5912702,130.3961258,,,2000,八方亭 / ラーメン/焼きラーメン/焼き鳥/おでん / 天神 / ひょうきんで優しいマスターが目印の屋台,0.95,accepted,true,Fukuoka official yatai dataset; deduplicated by 屋台ID
official-fukuoka-yatai-122530,jp-fukuoka,후쿠오카,JP,華,華,Hana,food_place,official_yatai,fukuoka_yatai_curated,122530,https://yokanavi.com/yatai/122530/,バリバリの博多弁が飛び交う店内で博多気分満喫,ラーメン/焼きラーメン/天ぷら/焼き鳥/おでん/餃子,福岡県福岡市中央区天神2-14-13,33.5909981,130.3957306,,,1500,華 / ラーメン/焼きラーメン/天ぷら/焼き鳥/おでん/餃子 / 天神 / バリバリの博多弁が飛び交う店内で博多気分満喫,0.95,accepted,true,Fukuoka official yatai dataset; deduplicated by 屋台ID
official-fukuoka-yatai-122532,jp-fukuoka,후쿠오카,JP,与作,与作,Yosaku,food_place,official_yatai,fukuoka_yatai_curated,122532,https://yokanavi.com/yatai/122532/,見た目とのギャップに^^おもしろい大将がお相手,ラーメン/焼きラーメン/焼き鳥/おでん,福岡県福岡市中央区天神2-14-13,33.5911576,130.3956811,,,1500,与作 / ラーメン/焼きラーメン/焼き鳥/おでん / 天神 / 見た目とのギャップに^^おもしろい大将がお相手,0.95,accepted,true,Fukuoka official yatai dataset; deduplicated by 屋台ID
official-fukuoka-yatai-122533,jp-fukuoka,후쿠오카,JP,味府,味府,Ajifu,food_place,official_yatai,fukuoka_yatai_curated,122533,https://yokanavi.com/yatai/122533/,昭和47年創業の老舗屋台おいしい料理とお酒を,ラーメン/焼き鳥/餃子,福岡県福岡市中央区天神2-1-1,33.5882149,130.400613,,,2500,味府 / ラーメン/焼き鳥/餃子 / 天神 / 昭和47年創業の老舗屋台おいしい料理とお酒を,0.95,accepted,true,Fukuoka official yatai dataset; deduplicated by 屋台ID
official-fukuoka-yatai-122534,jp-fukuoka,후쿠오카,JP,満龍,満龍,Manryu,food_place,official_yatai,fukuoka_yatai_curated,122534,https://yokanavi.com/yatai/122534/,当店名物！明太子入り玉子焼きが人気の屋台です！,ラーメン/焼きラーメン/焼き鳥/おでん/餃子/海外の料理,福岡県福岡市中央区天神4-2-1,33.592899,130.4001575,,,2500,満龍 / ラーメン/焼きラーメン/焼き鳥/おでん/餃子/海外の料理 / 天神 / 当店名物！明太子入り玉子焼きが人気の屋台です！,0.95,accepted,true,Fukuoka official yatai dataset; deduplicated by 屋台ID
official-fukuoka-yatai-122535,jp-fukuoka,후쿠오카,JP,鬼多郎,鬼多郎,Kitaro,food_place,official_yatai,fukuoka_yatai_curated,122535,https://yokanavi.com/yatai/122535/,鬼多郎はここから始まった屋台です,ラーメン/焼き鳥/おでん/餃子,福岡県福岡市中央区渡辺通4-6,33.5857368,130.4029881,,,2500,鬼多郎 / ラーメン/焼き鳥/おでん/餃子 / 天神 / 鬼多郎はここから始まった屋台です,0.95,accepted,true,Fukuoka official yatai dataset; deduplicated by 屋台ID
official-fukuoka-yatai-122537,jp-fukuoka,후쿠오카,JP,長浜ラーメンおかもと,長浜ラーメンおかもと,Okamoto,food_place,official_yatai,fukuoka_yatai_curated,122537,https://yokanavi.com/yatai/122537/,芸能人やスポーツ選手にも愛される屋台,ラーメン/焼きラーメン/おでん/中華料理,福岡県福岡市中央区渡辺通4-1,33.5854152,130.4032779,,,2500,長浜ラーメンおかもと / ラーメン/焼きラーメン/おでん/中華料理 / 天神 / 芸能人やスポーツ選手にも愛される屋台,0.95,accepted,true,Fukuoka official yatai dataset; deduplicated by 屋台ID
official-fukuoka-yatai-122538,jp-fukuoka,후쿠오카,JP,大政,大政,Omasa,food_place,official_yatai,fukuoka_yatai_curated,122538,https://yokanavi.com/yatai/122538/,先代の大将もまだ現役でおしゃべりの相手をしてくれます,うどん/天ぷら/焼き鳥/おでん,福岡県福岡市博多区中洲5-4,33.5941031,130.4033345,,,2500,大政 / うどん/天ぷら/焼き鳥/おでん / 中洲 / 先代の大将もまだ現役でおしゃべりの相手をしてくれます,0.95,accepted,true,Fukuoka official yatai dataset; deduplicated by 屋台ID
official-fukuoka-yatai-122539,jp-fukuoka,후쿠오카,JP,飛車浬,飛車浬,Pishari,food_place,official_yatai,fukuoka_yatai_curated,122539,https://yokanavi.com/yatai/122539/,博多に来たらまずは屋台で博多ラーメン駅前の名店は観光客でいつもいっぱい,ラーメン/おでん,福岡県福岡市博多区博多駅東2-5,33.5881799,130.4225307,,,2500,飛車浬 / ラーメン/おでん / その他 / 博多に来たらまずは屋台で博多ラーメン駅前の名店は観光客でいつもいっぱい,0.95,accepted,true,Fukuoka official yatai dataset; deduplicated by 屋台ID
official-fukuoka-yatai-124484,jp-fukuoka,후쿠오카,JP,屋台桜,屋台桜,Yataizakura,food_place,official_yatai,fukuoka_yatai_curated,124484,https://yokanavi.com/yatai/124484/,,ラーメン/焼きラーメン/おでん,福岡県福岡市博多区博多駅東2-5（スターパーキング前）,33.5880943,130.4224283,,,,屋台桜 / ラーメン/焼きラーメン/おでん / その他,0.95,accepted,true,Fukuoka official yatai dataset; deduplicated by 屋台ID
official-fukuoka-yatai-124488,jp-fukuoka,후쿠오카,JP,一平,一平,Ippei,food_place,official_yatai,fukuoka_yatai_curated,124488,https://yokanavi.com/yatai/124488/,"【店主のオススメ！】 天ぷら盛り合わせ 2,000円※金額は2023年12月時点のものです。<iframe src=""https://www.google.com/maps/d/u/1/embed?mid=1BfllgBqeJWXb7hU8F1jVDVjs5dzH184&amp;ehbc=2E312F"" width=""100%"" height=""480""></iframe>",天ぷら/焼き鳥,福岡県福岡市博多区中洲4-1,33.5913596,130.4070801,,,,"一平 / 天ぷら/焼き鳥 / 中洲 / 【店主のオススメ！】 天ぷら盛り合わせ 2,000円※金額は2023年12月時点のものです。<iframe src=""https://www.google.com/maps/d/u/1/embed?mid=1BfllgBqeJWXb7hU8F1jVDVjs5dzH184&amp;ehbc=2E312F"" width=""",0.95,accepted,true,Fukuoka official yatai dataset; deduplicated by 屋台ID
official-fukuoka-yatai-124490,jp-fukuoka,후쿠오카,JP,のんきや,のんきや,Nonkiya,food_place,official_yatai,fukuoka_yatai_curated,124490,https://yokanavi.com/yatai/124490/,"【店主のオススメ！】 ラーメン 550円おでん 150円餃子 450円 ※金額は2023年12月時点のものです。【関連サイト】 ・<a href=""https://tabelog.com/fukuoka/A4001/A400102/40042398/"">食べログ</a> ・<a href=""https://twitter.com/yatai_nonkiya?lang=ja"">twitter（現X）</a><iframe src=""https://www.google.com/maps/d/u/1/embed?mid=1uDdu1I78axm6Bj40UOS2_pM83kDImDg&amp;ehbc=2E312F"" width=""100%"" height=""480""></iframe>",ラーメン/焼き鳥/おでん/餃子/韓国料理,福岡県福岡市博多区中洲5-5（ファミリーマート前）,33.5943748,130.4035802,,,,"のんきや / ラーメン/焼き鳥/おでん/餃子/韓国料理 / 中洲 / 【店主のオススメ！】 ラーメン 550円おでん 150円餃子 450円 ※金額は2023年12月時点のものです。【関連サイト】 ・<a href=""https://tabelog.com/fukuoka/A4001/A400102/40042398/"">食べログ</a> ・<a href=""https://twitte",0.95,accepted,true,Fukuoka official yatai dataset; deduplicated by 屋台ID
official-fukuoka-yatai-124491,jp-fukuoka,후쿠오카,JP,さんゆう,さんゆう,Sanyu,food_place,official_yatai,fukuoka_yatai_curated,124491,https://yokanavi.com/yatai/124491/,"【店主のオススメ！】 焼きラーメン 900円もつ焼き 1,000円おでん 1,100円 ※金額は2023年12月時点のものです。【関連サイト】・<a href=""https://tabelog.com/fukuoka/A4001/A400102/40003443/"">食べログ</a><iframe src=""https://www.google.com/maps/d/u/1/embed?mid=13egqiPpHzDJBT8Sk36uG-PtUzIwNOqg&amp;ehbc=2E312F"" width=""100%"" height=""480""></iframe>",ラーメン/焼きラーメン/焼き鳥/おでん/餃子,福岡県福岡市博多区中洲1-8（清流公園内）,33.5904806,130.4081838,,,,"さんゆう / ラーメン/焼きラーメン/焼き鳥/おでん/餃子 / 中洲 / 【店主のオススメ！】 焼きラーメン 900円もつ焼き 1,000円おでん 1,100円 ※金額は2023年12月時点のものです。【関連サイト】・<a href=""https://tabelog.com/fukuoka/A4001/A400102/40003443/"">食べログ</a><iframe src=""https",0.95,accepted,true,Fukuoka official yatai dataset; deduplicated by 屋台ID
official-fukuoka-yatai-124492,jp-fukuoka,후쿠오카,JP,大ちゃん,大ちゃん,Daichan,food_place,official_yatai,fukuoka_yatai_curated,124492,https://yokanavi.com/yatai/124492/,"【店主のオススメ！】 ラーメン 770円 ※金額は2023年12月時点のものです。【関連サイト】・<a href=""https://tabelog.com/fukuoka/A4001/A400102/40028732/"">食べログ</a><iframe src=""https://www.google.com/maps/d/u/1/embed?mid=1rIys19LoarrRIs3tm2xMTAPBlB0SuN0&amp;ehbc=2E312F"" width=""100%"" height=""480""></iframe>",ラーメン/焼きラーメン/焼き鳥/おでん,福岡県福岡市博多区中洲1-8（清流公園内）,33.5906616,130.4080669,,,,"大ちゃん / ラーメン/焼きラーメン/焼き鳥/おでん / 中洲 / 【店主のオススメ！】 ラーメン 770円 ※金額は2023年12月時点のものです。【関連サイト】・<a href=""https://tabelog.com/fukuoka/A4001/A400102/40028732/"">食べログ</a><iframe src=""https://www.google.com/maps/",0.95,accepted,true,Fukuoka official yatai dataset; deduplicated by 屋台ID
official-fukuoka-yatai-124493,jp-fukuoka,후쿠오카,JP,紀文,紀文,Kibun,food_place,official_yatai,fukuoka_yatai_curated,124493,https://yokanavi.com/yatai/124493/,"【店主のオススメ！】 天ぷら 1,800円おでん 900円※金額は2023年12月時点のものです。【関連サイト】 ・<a href=""https://tabelog.com/fukuoka/A4001/A400101/40052600/"">食べログ</a><iframe src=""https://www.google.com/maps/d/embed?mid=1CanMtiKpwe9Ckm02tLXeOs5iixkOgNI&amp;ehbc=2E312F"" width=""100%"" height=""480""></iframe>",天ぷら/おでん,福岡県福岡市博多区中洲1-8（清流公園内）,33.5905481,130.4080086,,,,"紀文 / 天ぷら/おでん / 中洲 / 【店主のオススメ！】 天ぷら 1,800円おでん 900円※金額は2023年12月時点のものです。【関連サイト】 ・<a href=""https://tabelog.com/fukuoka/A4001/A400101/40052600/"">食べログ</a><iframe src=""https://www.google.",0.95,accepted,true,Fukuoka official yatai dataset; deduplicated by 屋台ID
official-fukuoka-yatai-124494,jp-fukuoka,후쿠오카,JP,司,司,Tsukasa,food_place,official_yatai,fukuoka_yatai_curated,124494,https://yokanavi.com/yatai/124494/,"【店主のオススメ！】 明太子天ぷら 1,000円串盛り合わせ 1,200円明太子肉巻き 700円 ※金額は2023年12月時点のものです。【関連サイト】・<a href=""https://tabelog.com/fukuoka/A4001/A400102/40005719/"">食べログ</a><iframe src=""https://www.google.com/maps/d/embed?mid=10JtO_f_IS3Viap8T4JBWGc5n6BuXb34&amp;ehbc=2E312F"" width=""100%"" height=""480""></iframe>",天ぷら/焼き鳥,福岡県福岡市博多区中洲1-8（清流公園内）,33.5904987,130.4080992,,,,"司 / 天ぷら/焼き鳥 / 中洲 / 【店主のオススメ！】 明太子天ぷら 1,000円串盛り合わせ 1,200円明太子肉巻き 700円 ※金額は2023年12月時点のものです。【関連サイト】・<a href=""https://tabelog.com/fukuoka/A4001/A400102/40005719/"">食べログ</a><iframe src=""",0.95,accepted,true,Fukuoka official yatai dataset; deduplicated by 屋台ID
official-fukuoka-yatai-124495,jp-fukuoka,후쿠오카,JP,たっちゃん,たっちゃん,Tatchan,food_place,official_yatai,fukuoka_yatai_curated,124495,https://yokanavi.com/yatai/124495/,博多名物を取り揃えてます。お気軽にお立ち寄りください。,ラーメン/焼き鳥/おでん,福岡県福岡市博多区中洲1-8（清流公園内）,33.5903829,130.4082876,,,,たっちゃん / ラーメン/焼き鳥/おでん / 中洲 / 博多名物を取り揃えてます。お気軽にお立ち寄りください。,0.95,accepted,true,Fukuoka official yatai dataset; deduplicated by 屋台ID
official-fukuoka-yatai-124498,jp-fukuoka,후쿠오카,JP,省ちゃん,省ちゃん,Shochan,food_place,official_yatai,fukuoka_yatai_curated,124498,https://yokanavi.com/yatai/124498/,"【店主のオススメ！】 ラーメン 700円焼きとり（６本） 1,100円おでん（６個） 1,100円 ※金額は2023年12月時点のものです。【関連サイト】・<a href=""https://www.instagram.com/nakasuyatai_shochan/"">instagram</a> ・<a href=""https://tabelog.com/fukuoka/A4001/A400102/40046260/"">食べログ</a><iframe src=""https://www.google.com/maps/d/u/1/embed?mid=1_A_hF8-wRVhg-aguRj46SUwfhlSS39E&amp;ehbc=2E312F"" width=""100%"" height=""480""></iframe>",ラーメン/焼きラーメン/焼き鳥/おでん,福岡県福岡市博多区中洲1-8（清流公園内）,33.5899953,130.4088376,,,,"省ちゃん / ラーメン/焼きラーメン/焼き鳥/おでん / 中洲 / 【店主のオススメ！】 ラーメン 700円焼きとり（６本） 1,100円おでん（６個） 1,100円 ※金額は2023年12月時点のものです。【関連サイト】・<a href=""https://www.instagram.com/nakasuyatai_shochan/"">instagram</a> ・<a href=""h",0.95,accepted,true,Fukuoka official yatai dataset; deduplicated by 屋台ID
official-fukuoka-yatai-124500,jp-fukuoka,후쿠오카,JP,山幸,山幸,Yamako,food_place,official_yatai,fukuoka_yatai_curated,124500,https://yokanavi.com/yatai/124500/,"【店主のオススメ！】 ナスメン 900円 ※金額は2023年12月時点のものです。【関連サイト】・<a href=""https://www.instagram.com/hakatayatai_yamakou/"">instagram</a> ・<a href=""https://tabelog.com/fukuoka/A4001/A400103/40005968/"">食べログ</a><iframe src=""https://www.google.com/maps/d/u/1/embed?mid=1_GOe6aUbVMGJ-EWsrqUY1_k4FxG-jlw&amp;ehbc=2E312F"" width=""100%"" height=""480""></iframe>",ラーメン/焼きラーメン/焼き鳥/おでん/餃子/洋食・西洋料理,福岡県福岡市博多区中洲1-8（清流公園内）,33.5901018,130.408694,,,,"山幸 / ラーメン/焼きラーメン/焼き鳥/おでん/餃子/洋食・西洋料理 / 中洲 / 【店主のオススメ！】 ナスメン 900円 ※金額は2023年12月時点のものです。【関連サイト】・<a href=""https://www.instagram.com/hakatayatai_yamakou/"">instagram</a> ・<a href=""https://tabelog.com/fukuoka/A4",0.95,accepted,true,Fukuoka official yatai dataset; deduplicated by 屋台ID
official-fukuoka-yatai-124501,jp-fukuoka,후쿠오카,JP,純ちゃん,純ちゃん,Junchan,food_place,official_yatai,fukuoka_yatai_curated,124501,https://yokanavi.com/yatai/124501/,"【店主のオススメ！】 ラーメン 700円※金額は2023年12月時点のものです。【貸切】?８人以下で可能。【関連サイト】 ・<a href=""https://www.instagram.com/yataijunchan/"">instagram</a> ・<a href=""https://tabelog.com/fukuoka/A4001/A400106/40039152/"">食べログ</a><iframe src=""https://www.google.com/maps/d/u/1/embed?mid=1u4Wzed9IvK7K0Oqj-ZZJEuqptNdwhJo&amp;ehbc=2E312F"" width=""100%"" height=""480""></iframe>",ラーメン/焼き鳥/おでん,福岡県福岡市博多区石城町1-1（福岡銀行前）,33.6028154,130.4038121,,,,"純ちゃん / ラーメン/焼き鳥/おでん / その他 / 【店主のオススメ！】 ラーメン 700円※金額は2023年12月時点のものです。【貸切】?８人以下で可能。【関連サイト】 ・<a href=""https://www.instagram.com/yataijunchan/"">instagram</a> ・<a href=""https://tabelog.com/fuku",0.95,accepted,true,Fukuoka official yatai dataset; deduplicated by 屋台ID
official-fukuoka-yatai-124506,jp-fukuoka,후쿠오카,JP,Telas & mico,Telas & mico,Telas & mico,food_place,official_yatai,fukuoka_yatai_curated,124506,https://yokanavi.com/yatai/124506/,お客さんの「Telas&mico」との付き合い方は十人十色。,ラーメン/焼き鳥/洋食・西洋料理/海外の料理,福岡県福岡市中央区渡辺通4-9（天神ロフト前）,33.5871419,130.4017123,,,,Telas & mico / ラーメン/焼き鳥/洋食・西洋料理/海外の料理 / 天神 / お客さんの「Telas&mico」との付き合い方は十人十色。,0.95,accepted,true,Fukuoka official yatai dataset; deduplicated by 屋台ID
official-fukuoka-yatai-124516,jp-fukuoka,후쿠오카,JP,天神のりゅう太くん,天神のりゅう太くん,Tenjin no ryutakun,food_place,official_yatai,fukuoka_yatai_curated,124516,https://yokanavi.com/yatai/124516/,福岡のソウルフードから海鮮まで充実。,ラーメン/焼き鳥/おでん,福岡県福岡市中央区天神1-12-20（日之出天神ビル前）,33.5922629,130.399307,,,,天神のりゅう太くん / ラーメン/焼き鳥/おでん / 天神 / 福岡のソウルフードから海鮮まで充実。,0.95,accepted,true,Fukuoka official yatai dataset; deduplicated by 屋台ID
official-fukuoka-yatai-161391,jp-fukuoka,후쿠오카,JP,博多 赤之助,博多 赤之助,Akanosuke,food_place,official_yatai,fukuoka_yatai_curated,161391,https://yokanavi.com/yatai/161391/,人気雑誌でも度々取り上げられているまだ新しい行列ができる屋台！！,ラーメン/焼きラーメン/焼き鳥,福岡県福岡市博多区中洲1-8（清流公園内）,33.5901065,130.4088498,,,2000,博多 赤之助 / ラーメン/焼きラーメン/焼き鳥 / 中洲 / 人気雑誌でも度々取り上げられているまだ新しい行列ができる屋台！！,0.95,accepted,true,Fukuoka official yatai dataset; deduplicated by 屋台ID
official-fukuoka-yatai-161392,jp-fukuoka,후쿠오카,JP,ひょうたん,ひょうたん,Hyotan,food_place,official_yatai,fukuoka_yatai_curated,161392,https://yokanavi.com/yatai/161392/,揚げたて天婦羅、ぶ厚い牛タンステーキで大人気の屋台です！,天ぷら/その他,福岡県福岡市博多区中洲中島町1,33.5949726,130.4034524,,,3000,ひょうたん / 天ぷら/その他 / 中洲 / 揚げたて天婦羅、ぶ厚い牛タンステーキで大人気の屋台です！,0.95,accepted,true,Fukuoka official yatai dataset; deduplicated by 屋台ID
official-fukuoka-yatai-161393,jp-fukuoka,후쿠오카,JP,KUROチャン,KUROチャン,KUROchan,food_place,official_yatai,fukuoka_yatai_curated,161393,https://yokanavi.com/yatai/161393/,豪快に焼き上げる「地鶏の炭火焼き」は見た目も味もやみつきに。,ラーメン/焼きラーメン/焼き鳥/おでん,福岡県福岡市博多区中洲中島町1,33.595028,130.4035052,,,3000,KUROチャン / ラーメン/焼きラーメン/焼き鳥/おでん / 中洲 / 豪快に焼き上げる「地鶏の炭火焼き」は見た目も味もやみつきに。,0.95,accepted,true,Fukuoka official yatai dataset; deduplicated by 屋台ID
official-fukuoka-yatai-161394,jp-fukuoka,후쿠오카,JP,博多中洲屋台 交龍,博多中洲屋台 交龍,Koryu,food_place,official_yatai,fukuoka_yatai_curated,161394,https://yokanavi.com/yatai/161394/,料理は、鶏ガラから炊き出す“鶏白湯”を使った創作料理が看板。ゆっくりと、お酒と会話が楽しめるオトナの屋台です。,おでん,福岡県福岡市博多区中洲4-1,33.5912656,130.4071713,,,1800,博多中洲屋台 交龍 / おでん / 中洲 / 料理は、鶏ガラから炊き出す“鶏白湯”を使った創作料理が看板。ゆっくりと、お酒と会話が楽しめるオトナの屋台です。,0.95,accepted,true,Fukuoka official yatai dataset; deduplicated by 屋台ID
official-fukuoka-yatai-161395,jp-fukuoka,후쿠오카,JP,博多屋台 中洲十番,博多屋台 中洲十番,Nakasu juban,food_place,official_yatai,fukuoka_yatai_curated,161395,https://yokanavi.com/yatai/161395/,福岡産の原材料で博多の名物料理をお出ししております。,ラーメン/焼きラーメン/うどん/焼き鳥/おでん/餃子,福岡県福岡市博多区中洲1-8（清流公園内）,33.5902997,130.4083795,,,1500,博多屋台 中洲十番 / ラーメン/焼きラーメン/うどん/焼き鳥/おでん/餃子 / 中洲 / 福岡産の原材料で博多の名物料理をお出ししております。,0.95,accepted,true,Fukuoka official yatai dataset; deduplicated by 屋台ID
official-fukuoka-yatai-161438,jp-fukuoka,후쿠오카,JP,天神 屋台 あごだし亭きさいち,天神 屋台 あごだし亭きさいち,Agodashitei Kisaichi,food_place,official_yatai,fukuoka_yatai_curated,161438,https://yokanavi.com/yatai/161438/,嬉しい！楽しい！入りやすい！屋台初心者でも気軽に楽しめるお店！,うどん/おでん/餃子/その他,福岡県福岡市中央区天神2-12-1,33.5915637,130.398532,,,2000,天神 屋台 あごだし亭きさいち / うどん/おでん/餃子/その他 / 天神 / 嬉しい！楽しい！入りやすい！屋台初心者でも気軽に楽しめるお店！,0.95,accepted,true,Fukuoka official yatai dataset; deduplicated by 屋台ID
official-fukuoka-yatai-161440,jp-fukuoka,후쿠오카,JP,ジビエ料理屋台 情熱の千鳥足,ジビエ料理屋台 情熱の千鳥足,Jonetsu no chidoriashi,food_place,official_yatai,fukuoka_yatai_curated,161440,https://yokanavi.com/yatai/161440/,猪や鹿などジビエ肉を中心としたお料理とお酒をお出ししています。苦手な方のために焼き鳥などもご用意しております。,焼き鳥/おでん/餃子/洋食・西洋料理/その他,福岡県福岡市中央区渡辺通4-9,33.5870954,130.4017551,,,1500,ジビエ料理屋台 情熱の千鳥足 / 焼き鳥/おでん/餃子/洋食・西洋料理/その他 / 天神 / 猪や鹿などジビエ肉を中心としたお料理とお酒をお出ししています。苦手な方のために焼き鳥などもご用意しております。,0.95,accepted,true,Fukuoka official yatai dataset; deduplicated by 屋台ID
official-fukuoka-yatai-161441,jp-fukuoka,후쿠오카,JP,レミさんち,レミさんち,Chez Remy,food_place,official_yatai,fukuoka_yatai_curated,161441,https://yokanavi.com/yatai/161441/,フランス人オーナーが迎える創作カジュアルフレンチ！,洋食・西洋料理,福岡県福岡市中央区渡辺通4-9,33.5870305,130.4017984,,,2000,レミさんち / 洋食・西洋料理 / 天神 / フランス人オーナーが迎える創作カジュアルフレンチ！,0.95,accepted,true,Fukuoka official yatai dataset; deduplicated by 屋台ID
official-fukuoka-yatai-195675,jp-fukuoka,후쿠오카,JP,megane coffee & spirits,megane coffee & spirits,megane coffee & spirits,food_place,official_yatai,fukuoka_yatai_curated,195675,https://yokanavi.com/yatai/195675/,ハンドドリップのコーヒーと、焼酎やクラフトジンなどの蒸溜酒をメインにした屋台です。,その他,福岡県福岡市中央区天神4-2-1,33.5931715,130.4007243,,,2000,megane coffee & spirits / その他 / 天神 / ハンドドリップのコーヒーと、焼酎やクラフトジンなどの蒸溜酒をメインにした屋台です。,0.95,accepted,true,Fukuoka official yatai dataset; deduplicated by 屋台ID
official-fukuoka-yatai-195686,jp-fukuoka,후쿠오카,JP,ナカナカナカ,ナカナカナカ,Nakanakanaka,food_place,official_yatai,fukuoka_yatai_curated,195686,https://yokanavi.com/yatai/195686/,クラフト生ビールが飲める屋台はここだけ！,ラーメン/焼きラーメン/焼き鳥/餃子,福岡県福岡市中央区天神2-1-1,33.5891361,130.3998866,,,1500,ナカナカナカ / ラーメン/焼きラーメン/焼き鳥/餃子 / 天神 / クラフト生ビールが飲める屋台はここだけ！,0.95,accepted,true,Fukuoka official yatai dataset; deduplicated by 屋台ID
official-fukuoka-yatai-197089,jp-fukuoka,후쿠오카,JP,博多屋台よっちゃん,博多屋台よっちゃん,Yotchan,food_place,official_yatai,fukuoka_yatai_curated,197089,https://yokanavi.com/yatai/197089/,人気メニューは、餃子、明太だし巻き玉子、焼きラーメンです！,ラーメン/焼きラーメン/焼き鳥/おでん/餃子,福岡県福岡市博多区中洲4-1,33.5913851,130.4070521,,,1500,博多屋台よっちゃん / ラーメン/焼きラーメン/焼き鳥/おでん/餃子 / 中洲 / 人気メニューは、餃子、明太だし巻き玉子、焼きラーメンです！,0.95,accepted,true,Fukuoka official yatai dataset; deduplicated by 屋台ID
official-fukuoka-yatai-197096,jp-fukuoka,후쿠오카,JP,たけちゃんfr司,たけちゃんfr司,Takechan fr Tsukasa,food_place,official_yatai,fukuoka_yatai_curated,197096,https://yokanavi.com/yatai/197096/,敷居の低い、初心者向けの屋台です。最初に寄るもヨシ！締めに寄るもヨシ！何でも情報持っていきんしゃい！,ラーメン/焼きラーメン/焼き鳥/おでん/その他,福岡県福岡市博多区中洲4-1,33.5913171,130.4071167,,,2000,たけちゃんfr司 / ラーメン/焼きラーメン/焼き鳥/おでん/その他 / 中洲 / 敷居の低い、初心者向けの屋台です。最初に寄るもヨシ！締めに寄るもヨシ！何でも情報持っていきんしゃい！,0.95,accepted,true,Fukuoka official yatai dataset; deduplicated by 屋台ID
official-fukuoka-yatai-219040,jp-fukuoka,후쿠오카,JP,El Bajon,El Bajon,El Bajon,food_place,official_yatai,fukuoka_yatai_curated,219040,https://yokanavi.com/yatai/219040/,本物の多国籍料理が日本で食べられる屋台。,焼きラーメン/おでん/洋食・西洋料理/海外の料理,福岡県福岡市中央区天神4-2-1,33.5931184,130.4006148,,,2000,El Bajon / 焼きラーメン/おでん/洋食・西洋料理/海外の料理 / 天神 / 本物の多国籍料理が日本で食べられる屋台。,0.95,accepted,true,Fukuoka official yatai dataset; deduplicated by 屋台ID
official-fukuoka-yatai-219042,jp-fukuoka,후쿠오카,JP,HEROs屋台 蒸上,HEROs屋台 蒸上,Jojo,food_place,official_yatai,fukuoka_yatai_curated,219042,https://yokanavi.com/yatai/219042/,福岡で唯一の蒸物屋台。数種の焼売を始め、茶碗蒸し、せいろ蒸し。,おでん/その他,福岡県福岡市中央区天神4-2-1,33.5894973,130.4001316,,,1500,HEROs屋台 蒸上 / おでん/その他 / 天神 / 福岡で唯一の蒸物屋台。数種の焼売を始め、茶碗蒸し、せいろ蒸し。,0.95,accepted,true,Fukuoka official yatai dataset; deduplicated by 屋台ID
official-fukuoka-yatai-219045,jp-fukuoka,후쿠오카,JP,ばらかもん,ばらかもん,Barakamon,food_place,official_yatai,fukuoka_yatai_curated,219045,https://yokanavi.com/yatai/219045/,長崎県五島市出身の店主による趣向を凝らしたメニューや唯一無二の空間が売りの屋台。,ラーメン/焼きラーメン/焼き鳥/おでん/餃子,福岡県福岡市中央区天神2-13-1,33.5920208,130.3975979,,,2000,ばらかもん / ラーメン/焼きラーメン/焼き鳥/おでん/餃子 / 天神 / 長崎県五島市出身の店主による趣向を凝らしたメニューや唯一無二の空間が売りの屋台。,0.95,accepted,true,Fukuoka official yatai dataset; deduplicated by 屋台ID
official-fukuoka-yatai-219047,jp-fukuoka,후쿠오카,JP,博多でかごっま屋台 酔っきー,博多でかごっま屋台 酔っきー,Yocky,food_place,official_yatai,fukuoka_yatai_curated,219047,https://yokanavi.com/yatai/219047/,博多で楽しめるかごっま（鹿児島）屋台。,焼きラーメン/天ぷら/おでん/餃子,福岡県福岡市中央区天神2-13-1,33.5920278,130.3976469,,,1500,博多でかごっま屋台 酔っきー / 焼きラーメン/天ぷら/おでん/餃子 / 天神 / 博多で楽しめるかごっま（鹿児島）屋台。,0.95,accepted,true,Fukuoka official yatai dataset; deduplicated by 屋台ID
official-fukuoka-yatai-219049,jp-fukuoka,후쿠오카,JP,あつまれ！ケンイチの森,あつまれ！ケンイチの森,Kennichi no mori,food_place,official_yatai,fukuoka_yatai_curated,219049,https://yokanavi.com/yatai/219049/,１人で来ても色々頼めるお手軽サイズでリーズナブルな小皿街中華の屋台。,おでん/中華料理,福岡県福岡市中央区天神2-13-1,33.5920656,130.3977884,,,1800,あつまれ！ケンイチの森 / おでん/中華料理 / 天神 / １人で来ても色々頼めるお手軽サイズでリーズナブルな小皿街中華の屋台。,0.95,accepted,true,Fukuoka official yatai dataset; deduplicated by 屋台ID
official-fukuoka-yatai-234287,jp-fukuoka,후쿠오카,JP,えんまんや,えんまんや,Enmanya,food_place,official_yatai,fukuoka_yatai_curated,234287,https://yokanavi.com/yatai/234287/,博多名物×地元食材のコラボレーション!! 趣向を凝らした創作料理が売りの屋台。,ラーメン/焼きラーメン/餃子,福岡県福岡市博多区中洲1-8（清流公園内）,33.5903481,130.408341,,,1500,えんまんや / ラーメン/焼きラーメン/餃子 / 中洲 / 博多名物×地元食材のコラボレーション!! 趣向を凝らした創作料理が売りの屋台。,0.95,accepted,true,Fukuoka official yatai dataset; deduplicated by 屋台ID
official-fukuoka-yatai-234291,jp-fukuoka,후쿠오카,JP,ウルトラC,ウルトラC,ULTRA C,food_place,official_yatai,fukuoka_yatai_curated,234291,https://yokanavi.com/yatai/234291/,九州産の野菜や肉を素材の美味しさを楽しめる串カツがメイン。お客様同士の繋がりの交差点となるよう、会話のきっかけを生んでいきます。,おでん/その他,福岡県福岡市博多区中洲中島町1,33.5948739,130.4033585,,,2000,ウルトラC / おでん/その他 / 中洲 / 九州産の野菜や肉を素材の美味しさを楽しめる串カツがメイン。お客様同士の繋がりの交差点となるよう、会話のきっかけを生んでいきます。,0.95,accepted,true,Fukuoka official yatai dataset; deduplicated by 屋台ID
official-fukuoka-yatai-234294,jp-fukuoka,후쿠오카,JP,博多屋台 繋々,博多屋台 繋々,Tsunatsuna,food_place,official_yatai,fukuoka_yatai_curated,234294,https://yokanavi.com/yatai/234294/,新鮮な福岡の食材を使った料理と豊富な種類のお酒を楽しめるアットホームな屋台。,その他,福岡県福岡市博多区中洲中島町1,33.5949042,130.4033874,,,1500,博多屋台 繋々 / その他 / 中洲 / 新鮮な福岡の食材を使った料理と豊富な種類のお酒を楽しめるアットホームな屋台。,0.95,accepted,true,Fukuoka official yatai dataset; deduplicated by 屋台ID
official-fukuoka-yatai-234298,jp-fukuoka,후쿠오카,JP,炉端屋台 正,炉端屋台 正,Masa,food_place,official_yatai,fukuoka_yatai_curated,234298,https://yokanavi.com/yatai/234298/,あの大行列ラーメン店”博多一双”の店主が手掛けるオール550円の炉端屋台！,ラーメン/その他,福岡県福岡市中央区渡辺通4-6,33.5857805,130.4029592,,,,炉端屋台 正 / ラーメン/その他 / 天神 / あの大行列ラーメン店”博多一双”の店主が手掛けるオール550円の炉端屋台！,0.95,accepted,true,Fukuoka official yatai dataset; deduplicated by 屋台ID
official-fukuoka-yatai-234300,jp-fukuoka,후쿠오카,JP,ひとつ屋根のした,ひとつ屋根のした,Hitotsu Yane no Shita,food_place,official_yatai,fukuoka_yatai_curated,234300,https://yokanavi.com/yatai/234300/,店主もスタッフも女性が切り盛り。実家のようなほっとする空間で博多のおふくろの味を堪能してみては？,うどん/おでん/餃子,福岡県福岡市中央区天神2-1-1（福岡三越東側）,33.589103,130.3999564,,,1500,ひとつ屋根のした / うどん/おでん/餃子 / 天神 / 店主もスタッフも女性が切り盛り。実家のようなほっとする空間で博多のおふくろの味を堪能してみては？,0.95,accepted,true,Fukuoka official yatai dataset; deduplicated by 屋台ID
official-fukuoka-yatai-235006,jp-fukuoka,후쿠오카,JP,長浜市民球場,長浜市民球場,Nagahama Shimin kyujo,food_place,official_yatai,fukuoka_yatai_curated,235006,https://yokanavi.com/yatai/235006/,乾杯ではなく「プレイボール」お会計ではなく「ゲームセット」,ラーメン/焼きラーメン/焼き鳥/おでん,福岡県福岡市中央区長浜3-14,33.593104,130.3875172,,,2000,長浜市民球場 / ラーメン/焼きラーメン/焼き鳥/おでん / 長浜 / 乾杯ではなく「プレイボール」お会計ではなく「ゲームセット」,0.95,accepted,true,Fukuoka official yatai dataset; deduplicated by 屋台ID
official-fukuoka-yatai-235008,jp-fukuoka,후쿠오카,JP,屋台のたまちゃん別館,屋台のたまちゃん別館,Yatai no Tamachan Annex,food_place,official_yatai,fukuoka_yatai_curated,235008,https://yokanavi.com/yatai/235008/,焼き鳥やおでん、ラーメンなど屋台の定番メニューを味わえます！常連客、観光客でいつも賑わっている、人気の屋台です。,ラーメン/焼きラーメン/焼き鳥/おでん,福岡県福岡市中央区長浜3-14,33.5930497,130.3874039,,,2000,屋台のたまちゃん別館 / ラーメン/焼きラーメン/焼き鳥/おでん / 長浜 / 焼き鳥やおでん、ラーメンなど屋台の定番メニューを味わえます！常連客、観光客でいつも賑わっている、人気の屋台です。,0.95,accepted,true,Fukuoka official yatai dataset; deduplicated by 屋台ID
official-fukuoka-yatai-235010,jp-fukuoka,후쿠오카,JP,屋台のたまちゃん,屋台のたまちゃん,Yatai no Tamachan,food_place,official_yatai,fukuoka_yatai_curated,235010,https://yokanavi.com/yatai/235010/,焼き鳥やおでん、ラーメンなど屋台の定番メニューを味わえます！長浜屋台街のリーダーである店主と明るいスタッフとの会話も楽しめる人気の屋台です。,ラーメン/焼きラーメン/焼き鳥/おでん,福岡県福岡市中央区長浜3-14,33.59302,130.3873533,,,2000,屋台のたまちゃん / ラーメン/焼きラーメン/焼き鳥/おでん / 長浜 / 焼き鳥やおでん、ラーメンなど屋台の定番メニューを味わえます！長浜屋台街のリーダーである店主と明るいスタッフとの会話も楽しめる人気の屋台です。,0.95,accepted,true,Fukuoka official yatai dataset; deduplicated by 屋台ID
official-fukuoka-yatai-235012,jp-fukuoka,후쿠오카,JP,長浜のひろし,長浜のひろし,Nagahama no Hiroshi,food_place,official_yatai,fukuoka_yatai_curated,235012,https://yokanavi.com/yatai/235012/,旬の野菜の肉巻がメインの屋台！,焼きラーメン/焼き鳥/おでん/餃子,福岡県福岡市中央区長浜3-14,33.5929821,130.3872463,,,1500,長浜のひろし / 焼きラーメン/焼き鳥/おでん/餃子 / 長浜 / 旬の野菜の肉巻がメインの屋台！,0.95,accepted,true,Fukuoka official yatai dataset; deduplicated by 屋台ID
official-fukuoka-yatai-235014,jp-fukuoka,후쿠오카,JP,長浜屋台 どげん家,長浜屋台 どげん家,Dogenya,food_place,official_yatai,fukuoka_yatai_curated,235014,https://yokanavi.com/yatai/235014/,唐揚げ屋の大将が串カツ・串揚げで勝負。サックサクの絶品揚げ物をご賞味あれ。,ラーメン/天ぷら/おでん,福岡県福岡市中央区長浜3-14,33.5929664,130.3872082,,,1500,長浜屋台 どげん家 / ラーメン/天ぷら/おでん / 長浜 / 唐揚げ屋の大将が串カツ・串揚げで勝負。サックサクの絶品揚げ物をご賞味あれ。,0.95,accepted,true,Fukuoka official yatai dataset; deduplicated by 屋台ID
official-fukuoka-yatai-235016,jp-fukuoka,후쿠오카,JP,長浜少衛,長浜少衛,Nagahama Shoei,food_place,official_yatai,fukuoka_yatai_curated,235016,https://yokanavi.com/yatai/235016/,中国の本格屋台メニューを中国人店主が現地の味で提供！,ラーメン/焼きラーメン/焼き鳥/餃子/中華料理,福岡県福岡市中央区長浜3-14,33.5929529,130.3871715,,,1500,長浜少衛 / ラーメン/焼きラーメン/焼き鳥/餃子/中華料理 / 長浜 / 中国の本格屋台メニューを中国人店主が現地の味で提供！,0.95,accepted,true,Fukuoka official yatai dataset; deduplicated by 屋台ID
official-fukuoka-yatai-235018,jp-fukuoka,후쿠오카,JP,明太中毒,明太中毒,Mentai Chudoku,food_place,official_yatai,fukuoka_yatai_curated,235018,https://yokanavi.com/yatai/235018/,屋台初の明太子専門店！,焼きラーメン/餃子,福岡県福岡市中央区長浜3-14,33.5929395,130.3871357,,,1500,明太中毒 / 焼きラーメン/餃子 / 長浜 / 屋台初の明太子専門店！,0.95,accepted,true,Fukuoka official yatai dataset; deduplicated by 屋台ID
official-fukuoka-yatai-124519,jp-fukuoka,후쿠오카,JP,新鮮具味,新鮮具味,Shinsengumi,food_place,official_yatai,fukuoka_yatai_curated,124519,https://yokanavi.com/yatai/124519/,"<iframe src=""https://www.google.com/maps/d/u/1/embed?mid=1rlAgWb3vkgIh6PFmwcRe2qTs5EKUN1U&amp;ehbc=2E312F"" width=""100%"" height=""480""></iframe>",ラーメン/焼き鳥/おでん,福岡県福岡市中央区西中洲11-9（小島ビル）,33.5894019,130.4040157,,,,"新鮮具味 / ラーメン/焼き鳥/おでん / 天神 / <iframe src=""https://www.google.com/maps/d/u/1/embed?mid=1rlAgWb3vkgIh6PFmwcRe2qTs5EKUN1U&amp;ehbc=2E312F"" width=""100%"" height=""480""></iframe>",0.95,accepted,true,Fukuoka official yatai dataset; deduplicated by 屋台ID
official-fukuoka-yatai-122482,jp-fukuoka,후쿠오카,JP,屋台もり,屋台もり,Mori,food_place,official_yatai,fukuoka_yatai_curated,122482,https://yokanavi.com/yatai/122482/,酒が飲めない大将の軽快な喋りに酔いしれてみては,天ぷら/焼き鳥,福岡県福岡市博多区中洲4-1,33.5914059,130.4070188,,,3000,屋台もり / 天ぷら/焼き鳥 / 中洲 / 酒が飲めない大将の軽快な喋りに酔いしれてみては,0.95,accepted,true,Fukuoka official yatai dataset; deduplicated by 屋台ID
official-fukuoka-yatai-124510,jp-fukuoka,후쿠오카,JP,安さん,安さん,Yasusan,food_place,official_yatai,fukuoka_yatai_curated,124510,https://yokanavi.com/yatai/124510/,,ラーメン/おでん/餃子,福岡県福岡市中央区天神2-1-1（福岡三越前）,33.5882722,130.4005732,,,,安さん / ラーメン/おでん/餃子 / 天神,0.95,accepted,true,Fukuoka official yatai dataset; deduplicated by 屋台ID
official-fukuoka-yatai-267999,jp-fukuoka,후쿠오카,JP,天神屋台ぞのちゃん,天神屋台ぞのちゃん,tenjinytai zonochan,food_place,official_yatai,fukuoka_yatai_curated,267999,https://yokanavi.com/spots/267999,明太子創作料理や九州産和牛もつ料理で博多の魅力満載の屋台！,ラーメン/焼きラーメン/焼き鳥/おでん/餃子/,福岡県福岡市中央区渡辺通4-1-36（BiVi福岡前）,33.585512,130.403213,,,2000,天神屋台ぞのちゃん / ラーメン/焼きラーメン/焼き鳥/おでん/餃子/ / 天神 / 明太子創作料理や九州産和牛もつ料理で博多の魅力満載の屋台！,0.95,accepted,true,Fukuoka official yatai dataset; deduplicated by 屋台ID
official-fukuoka-yatai-268000,jp-fukuoka,후쿠오카,JP,博多屋台からす天狗,博多屋台からす天狗,hakatayatai karasutengu,food_place,official_yatai,fukuoka_yatai_curated,268000,https://yokanavi.com/spots/268000,豊前のご当地グルメや食材を使った料理をご用意しています。,ラーメン/焼き鳥/おでん,福岡県福岡市中央区渡辺通4-1-36（BiVi福岡前）,33.585512,130.403213,,,2000,博多屋台からす天狗 / ラーメン/焼き鳥/おでん / 天神 / 豊前のご当地グルメや食材を使った料理をご用意しています。,0.95,accepted,true,Fukuoka official yatai dataset; deduplicated by 屋台ID
official-fukuoka-yatai-268001,jp-fukuoka,후쿠오카,JP,バル河野,バル河野,BAL Kono,food_place,official_yatai,fukuoka_yatai_curated,268001,https://yokanavi.com/spots/268001,四国松山の人気店の技×福岡食材で創る新感覚イタリアン！,洋食・西洋料理,福岡県福岡市中央区天神4-2-1,33.593127,130.400541,,,2000,バル河野 / 洋食・西洋料理 / 天神 / 四国松山の人気店の技×福岡食材で創る新感覚イタリアン！,0.95,accepted,true,Fukuoka official yatai dataset; deduplicated by 屋台ID
official-fukuoka-yatai-268018,jp-fukuoka,후쿠오카,JP,LEF,LEF,LEF,food_place,official_yatai,fukuoka_yatai_curated,268018,https://yokanavi.com/spots/268018,九州の旬食材を活かしたおばんざいと、こだわりの器でお迎えします。,その他,福岡県福岡市中央区天神4-2-1,33.593127,130.400541,,,2000,LEF / その他 / 天神 / 九州の旬食材を活かしたおばんざいと、こだわりの器でお迎えします。,0.95,accepted,true,Fukuoka official yatai dataset; deduplicated by 屋台ID
official-fukuoka-yatai-268019,jp-fukuoka,후쿠오카,JP,にのつぎ,にのつぎ,Ninotsugi,food_place,official_yatai,fukuoka_yatai_curated,268019,https://yokanavi.com/spots/268019,ポップな料理とレトロな雰囲気で、誰もが笑顔になれる空間を提供！,ラーメン/焼きラーメン/焼売,福岡県福岡市中央区渡辺通4-1-36（BiVi福岡前）,33.585512,130.403213,,,2000,にのつぎ / ラーメン/焼きラーメン/焼売 / 天神 / ポップな料理とレトロな雰囲気で、誰もが笑顔になれる空間を提供！,0.95,accepted,true,Fukuoka official yatai dataset; deduplicated by 屋台ID
official-fukuoka-yatai-268023,jp-fukuoka,후쿠오카,JP,長浜屋台がぶがぶ。,長浜屋台がぶがぶ。,nagahamayatai gabugabu,food_place,official_yatai,fukuoka_yatai_curated,268023,https://yokanavi.com/spots/268023,九州産地鶏や糸島の卵をつかったふわふわジューシーな”創作つくね”がイチオシ！,うどん/おでん/天ぷら,福岡県福岡市中央区長浜3-14,33.59313,130.387712,,,2000,長浜屋台がぶがぶ。 / うどん/おでん/天ぷら / 長浜 / 九州産地鶏や糸島の卵をつかったふわふわジューシーな”創作つくね”がイチオシ！,0.95,accepted,true,Fukuoka official yatai dataset; deduplicated by 屋台ID
official-hiroshima-facility-1,jp-hiroshima,히로시마,JP,縮景園,縮景園,,place,tourism_facility,hiroshima_tourism_facilities_city_only,1,https://shukkeien.jp/,旧浅野藩の庭園、国名勝,관광시설,広島市中区上幟町2-11,34.400111,132.46734,,,大人260円、高大生150円、小中生100円 団体20名以上、大人200円、高大生100円、小中生 80円,縮景園 / 旧浅野藩の庭園、国名勝 / 広島駅から徒歩12分,0.9,accepted,true,Hiroshima official tourism facility; city-code filtered
official-hiroshima-facility-2,jp-hiroshima,히로시마,JP,ひろしま遊学の森 広島県緑化センター,ひろしま遊学の森 広島県緑化センター,,place,tourism_facility,hiroshima_tourism_facilities_city_only,2,https://ryokka-c.jp/,自然に囲まれた公園で、125haの敷地内に500種以上の樹木が生育、四季折々の花木や、野生きのこ、野鳥、昆虫に出会える。樹木見本園や学習展示館等で植物や環境の勉強もできる。その他、多目的広場、わんこ広場、ﾚｽﾄﾊｳｽ等。,관광시설,広島市東区福田町10166-2,34.434576,132.565144,,,0,ひろしま遊学の森 広島県緑化センター / 自然に囲まれた公園で、125haの敷地内に500種以上の樹木が生育、四季折々の花木や、野生きのこ、野鳥、昆虫に出会える。樹木見本園や学習展示館等で植物や環境の勉強もできる。その他、多目的広場、わんこ広場、ﾚｽﾄﾊｳｽ等。 / 車:広島駅北口から約16㎞、広島東ICから約7㎞ ※災害による林道通行止めのため、第5駐車場、西ゲート閉鎖中。正面ゲート(小河原側)から入園可 バス:広島ﾊﾞｽｾﾝﾀｰ発広島駅経由小河原車庫行「小河原車庫」下車、ﾀｸｼｰで10分（約5㎞）,0.9,accepted,true,Hiroshima official tourism facility; city-code filtered
official-hiroshima-facility-3,jp-hiroshima,히로시마,JP,ひろしま遊学の森 広島市森林公園（こんちゅう館）,ひろしま遊学の森 広島市森林公園（こんちゅう館）,,place,tourism_facility,hiroshima_tourism_facilities_city_only,3,http://www.hiro-kon.jp/,常時50種、1000頭以上の生きた昆虫を飼育、展示するこんちゅう館、山城展望台、芝生広場、ｻﾞｲﾙｸﾗｲﾐﾝｸﾞ、ﾜﾝﾊﾟｸ橋、ﾃﾞｲｷｬﾝﾌﾟ場、ｼﾞｬﾌﾞｼﾞｬﾌﾞ川、休憩所、ﾓﾉﾚｰﾙ(大人200円、大人(65歳以上)100円、小人100円),관광시설,広島市東区福田町字藤ヶ丸10173,34.441393,132.554137,,,大人510円、大人(65歳以上) 170円、小人170円(高校生及び18歳未満。但し乳幼児、小中学生は無料) 団体30名以上、大人430円、大人(65歳以上) 130円、小人130円,ひろしま遊学の森 広島市森林公園（こんちゅう館） / 常時50種、1000頭以上の生きた昆虫を飼育、展示するこんちゅう館、山城展望台、芝生広場、ｻﾞｲﾙｸﾗｲﾐﾝｸﾞ、ﾜﾝﾊﾟｸ橋、ﾃﾞｲｷｬﾝﾌﾟ場、ｼﾞｬﾌﾞｼﾞｬﾌﾞ川、休憩所、ﾓﾉﾚｰﾙ(大人200円、大人(65歳以上)100円、小人100円) / 広島駅から車で約11㎞（広島高速1号線)、山陽道広島東ICから車で約3.8㎞ 小河原車庫行ﾊﾞｽ「登石」下車徒歩又はﾀｸｼｰで約2.5㎞,0.9,accepted,true,Hiroshima official tourism facility; city-code filtered
official-hiroshima-facility-4,jp-hiroshima,히로시마,JP,半べえ庭園,半べえ庭園,,place,tourism_facility,hiroshima_tourism_facilities_city_only,4,http://www.hanbe.jp/,純日本風庭園、料亭宴会場、結婚式場、和風ﾚｽﾄﾗﾝ、温泉,관광시설,広島市南区本浦町8-12,34.374913,132.487897,,,ご利用は当店をご利用の方に限らせて頂いております。,半べえ庭園 / 純日本風庭園、料亭宴会場、結婚式場、和風ﾚｽﾄﾗﾝ、温泉 / 広島駅より仁保車庫行バス15分｢仁保姫神社入口半べえ庭園前｣下車,0.9,accepted,true,Hiroshima official tourism facility; city-code filtered
official-hiroshima-facility-5,jp-hiroshima,히로시마,JP,渝華園(中国庭園),渝華園(中国庭園),,place,tourism_facility,hiroshima_tourism_facilities_city_only,5,https://www.hiroshima-navi.or.jp/post/006141.html,"広島市と中国・重慶市との友好都市提携五周年を記念して建設された中国式庭園。面積は約1,700㎡で、周囲に透かし彫りを施した塀を巡らし、園内には回廊・あずまや・門などの伝統的建物と池・樹木・石組などがそれぞれの趣を醸し出し、四季を通じて景色を楽しみながら、庭園内を回廊できるようになっている。",관광시설,広島市中区基町15 (中央公園内),34.400881,132.453092,,,0,"渝華園(中国庭園) / 広島市と中国・重慶市との友好都市提携五周年を記念して建設された中国式庭園。面積は約1,700㎡で、周囲に透かし彫りを施した塀を巡らし、園内には回廊・あずまや・門などの伝統的建物と池・樹木・石組などがそれぞれの趣を醸し出し、四季を通じて景色を楽しみながら、庭園内を回廊できるようになっている。 / 広島ﾊﾞｽｾﾝﾀｰから徒歩10分",0.9,accepted,true,Hiroshima official tourism facility; city-code filtered
official-hiroshima-facility-6,jp-hiroshima,히로시마,JP,大芝公園｢交通ランド」,大芝公園｢交通ランド」,,place,tourism_facility,hiroshima_tourism_facilities_city_only,6,http://www.midoriikimono.jp/transport_top.html,ｺﾞｰｶｰﾄ、駐車場、公園内に信号機や交通標識・踏切など実際の交通場面を再現。遊びながら交通ルールを学べる。,관광시설,広島市西区大芝公園1-50,34.418977,132.46064,,,ｺﾞｰｶｰﾄ使用料金、ひとり乗り100円、ふたり乗り150円 団体30名以上、ひとり乗り80円、ふたり乗り120円,大芝公園｢交通ランド」 / ｺﾞｰｶｰﾄ、駐車場、公園内に信号機や交通標識・踏切など実際の交通場面を再現。遊びながら交通ルールを学べる。 / 広島駅から祇園大橋行または国道183号線経由可部・安古市方面行ﾊﾞｽ30分、「大芝町」下車、東へ約250m,0.9,accepted,true,Hiroshima official tourism facility; city-code filtered
official-hiroshima-facility-7,jp-hiroshima,히로시마,JP,広島市安佐動物公園,広島市安佐動物公園,,place,tourism_facility,hiroshima_tourism_facilities_city_only,7,http://www.asazoo.jp/,"動物約150種、約1,650点 有料駐車場、ﾋﾟｸﾆｯｸ広場、売店、食堂、軽食・喫茶",관광시설,広島市安佐北区安佐町動物園,34.496663,132.442718,,,大人510円、大人(65歳以上)170円、小人170円(高校生及び18歳未満)、中学生以下無料 団体30名以上 大人430円、大人(65歳以上)130円、小人130円(高校生及び18歳未満),"広島市安佐動物公園 / 動物約150種、約1,650点 有料駐車場、ﾋﾟｸﾆｯｸ広場、売店、食堂、軽食・喫茶 / ｱｽﾄﾗﾑﾗｲﾝ県庁前駅から上安駅下車。バス乗り換え「あさひが丘」行き又は飯室行きで「安佐動物公園」下車（全所要時間約40分） ＪＲ広島駅から新白島駅で乗り換えｱｽﾄﾗﾑﾗｲﾝ県庁前駅、バスを利用（全所要時間約45分） 広島駅南口Bホーム、9番乗り場から「あさひが丘」行き、「安佐動物公園」下車（全所要時間約50分） 車で市中心部から国道54号線（祇園新道）、ｱｽﾄﾗﾑﾗｲﾝ沿いに上安経由約40分",0.9,accepted,true,Hiroshima official tourism facility; city-code filtered
official-hiroshima-facility-8,jp-hiroshima,히로시마,JP,花みどり公園,花みどり公園,,place,tourism_facility,hiroshima_tourism_facilities_city_only,8,http://www.haff.city.hiroshima.jp/info/hanamidori/,"西日本有数のｼｬｸﾅｹﾞ園(170品種、5,500本) ﾏﾚｰｼｱｼｬｸﾅｹﾞ等大展示室ほか",관광시설,広島市安佐北区安佐町久地2411-1,34.509417,132.413153,,,0,"花みどり公園 / 西日本有数のｼｬｸﾅｹﾞ園(170品種、5,500本) ﾏﾚｰｼｱｼｬｸﾅｹﾞ等大展示室ほか / 広島駅から、動物公園あさひが丘行きバスで「あさひが丘中」下車、ﾀｸｼｰ5分 ｱｽﾄﾗﾑﾗｲﾝ「上安」駅下車、ﾊﾞｽ乗り換え動物公園あさひが丘行ﾊﾞｽ「あさひが丘中」下車、ﾀｸｼｰ5分",0.9,accepted,true,Hiroshima official tourism facility; city-code filtered
official-hiroshima-facility-9,jp-hiroshima,히로시마,JP,広島市植物公園,広島市植物公園,,place,tourism_facility,hiroshima_tourism_facilities_city_only,9,http://www.hiroshima-bot.jp/,"約10,000品種、約19万7,000本の植物、大温室、熱帯スイレン温室、ﾍﾞｺﾆｱ温室、ﾌｸｼｱ温室、ｻﾎﾞﾃﾝ温室、展示温室、展示資料館、休憩展望塔、芝生広場、ﾚｽﾄﾗﾝ、駐車場等",관광시설,広島市佐伯区倉重三丁目495,34.390706,132.347438,,,大人510円、大人(65歳以上)170円、小人170円(高校生及び18歳未満)、中学生以下無料 団体30名以上大人430円、大人(65歳以上)130円、小人130円(高校生及び18歳未満),"広島市植物公園 / 約10,000品種、約19万7,000本の植物、大温室、熱帯スイレン温室、ﾍﾞｺﾆｱ温室、ﾌｸｼｱ温室、ｻﾎﾞﾃﾝ温室、展示温室、展示資料館、休憩展望塔、芝生広場、ﾚｽﾄﾗﾝ、駐車場等 / 広島ﾊﾞｽｾﾝﾀｰから植物公園経由薬師が丘団地行ﾊﾞｽ40分 JR五日市駅、広電五日市駅北口から植物公園経由薬師が丘団地行ﾊﾞｽ乗り換え約20分",0.9,accepted,true,Hiroshima official tourism facility; city-code filtered
official-hiroshima-facility-10,jp-hiroshima,히로시마,JP,広島県立美術館,広島県立美術館,,place,tourism_facility,hiroshima_tourism_facilities_city_only,10,https://www.hpam.jp/museum/,"広島県ゆかりの作家の美術作品、日本とｱｼﾞｱの工芸作品及び1920-30年代の美術を収集方針として、5,000点以上の美術品を所蔵・展示。",관광시설,広島市中区上幟町2-22,34.399787,132.466332,,,＜所蔵作品展＞一般510円、(団体410円)、大学生310円(団体250円)、高校生以下無料、団体20名以上 ＜特別展＞各展覧会ごとに設定,"広島県立美術館 / 広島県ゆかりの作家の美術作品、日本とｱｼﾞｱの工芸作品及び1920-30年代の美術を収集方針として、5,000点以上の美術品を所蔵・展示。 / 広島駅から約1ｋm 広島電鉄（「八丁堀」で乗り換え）白島線で「縮景園前」下車、約20ｍ 広島駅新幹線口からひろしまめいぷる～ぷで「広島県立美術館前」下車",0.9,accepted,true,Hiroshima official tourism facility; city-code filtered
official-hiroshima-facility-11,jp-hiroshima,히로시마,JP,広島市映像文化ライブラリー,広島市映像文化ライブラリー,,place,tourism_facility,hiroshima_tourism_facilities_city_only,11,http://www.cf.city.hiroshima.jp/eizou/,ﾎｰﾙ169席、ﾋﾞﾃﾞｵｺｰﾅｰ(7ブース)、試写試聴室、多目的研修室、ｵｰﾃﾞｨｵｺｰﾅｰ(1人用2席、2人用2席)、名作映画鑑賞会、他各種催し有り,관광시설,広島市中区基町3-1,34.398848,132.456972,,,使用料ﾋﾞﾃﾞｵ30分100円、30分延長につき100円、ｵｰﾃﾞｨｵ1台1時間100円 35㎜映画鑑賞料大人510円、シニア 250円、小人250円 団体30名以上大人400円、シニア 190円、小人190円,広島市映像文化ライブラリー / ﾎｰﾙ169席、ﾋﾞﾃﾞｵｺｰﾅｰ(7ブース)、試写試聴室、多目的研修室、ｵｰﾃﾞｨｵｺｰﾅｰ(1人用2席、2人用2席)、名作映画鑑賞会、他各種催し有り / 広島ﾊﾞｽｾﾝﾀｰから徒歩5分 広島電鉄「紙屋町西」または「紙屋町東」より徒歩5分,0.9,accepted,true,Hiroshima official tourism facility; city-code filtered
official-hiroshima-facility-12,jp-hiroshima,히로시마,JP,ひろしま美術館,ひろしま美術館,,place,tourism_facility,hiroshima_tourism_facilities_city_only,12,https://hiroshima-museum.jp/,印象派を中心としたフランス近代美術や日本画を含む日本近代美術などを約300点収蔵し、モネ、ルノアール、ゴッホ、ピカソといった巨匠たちの作画約90点を常設展示。併せて、年数回の特別展を開催。,관광시설,広島市中区基町3-2中央公園内,34.39873,132.45806,,,"＜ｺﾚｸｼｮﾝ展＞大人1,000円、高大生500円、小中生200円、団体割引有り(20名以上)２割引 ＜特別展＞各展覧会ごとに設定",ひろしま美術館 / 印象派を中心としたフランス近代美術や日本画を含む日本近代美術などを約300点収蔵し、モネ、ルノアール、ゴッホ、ピカソといった巨匠たちの作画約90点を常設展示。併せて、年数回の特別展を開催。 / 広島ﾊﾞｽｾﾝﾀｰから徒歩5分 広島電鉄「紙屋町西」または「紙屋町東」より徒歩5分,0.9,accepted,true,Hiroshima official tourism facility; city-code filtered
official-hiroshima-facility-13,jp-hiroshima,히로시마,JP,5-Daysこども文化科学館（プラネタリウム）,5-Daysこども文化科学館（プラネタリウム）,,place,tourism_facility,hiroshima_tourism_facilities_city_only,13,http://www.pyonta.city.hiroshima.jp/,ﾌﾟﾗﾈﾀﾘｳﾑ、ﾎｰﾙを備えた科学館。体験型科学展示のほか、教室事業も実施。同一敷地内にこども図書館も併設。 ﾌﾟﾗﾈﾀﾘｳﾑ投影開始時間 平日(火～金)①11:00 ②13:00③14:00 ④15:00 土・日・祝日・学校休業日①10:00 ②11:00③13:00 ④14:00⑤15:00 ⑥16:00,관광시설,広島市中区基町5-83,34.398642,132.45379,,,ﾌﾟﾗﾈﾀﾘｳﾑ観覧有料大人510円、シニア(65歳以上) 250円、高校生 250円、小中学生以下無料 団体30名以上大人410円、シニア(65歳以上)200円、高校生 210円（小中学生以下無料）,5-Daysこども文化科学館（プラネタリウム） / ﾌﾟﾗﾈﾀﾘｳﾑ、ﾎｰﾙを備えた科学館。体験型科学展示のほか、教室事業も実施。同一敷地内にこども図書館も併設。 ﾌﾟﾗﾈﾀﾘｳﾑ投影開始時間 平日(火～金)①11:00 ②13:00③14:00 ④15:00 土・日・祝日・学校休業日①10:00 ②11:00③13:00 ④14:00⑤15:00 ⑥16:00 / 広島ﾊﾞｽｾﾝﾀｰから約500m 広島電鉄「原爆ドーム前」下車、約300m,0.9,accepted,true,Hiroshima official tourism facility; city-code filtered
official-hiroshima-facility-14,jp-hiroshima,히로시마,JP,広島城,広島城,,place,tourism_facility,hiroshima_tourism_facilities_city_only,14,http://www.rijo-castle.jp/,「広島城の成立と役割」「城下町広島のくらしと文化」について、映像・実物による展示 武具等美術品・歴史資料展示,관광시설,広島市中区基町21-1,34.402712,132.459047,,,大人370円、シニア(65歳以上)180円、高校生180円 団体30名以上大人280円、シニア(65歳以上)100円、高校生100円,広島城 / 「広島城の成立と役割」「城下町広島のくらしと文化」について、映像・実物による展示 武具等美術品・歴史資料展示 / 広島ﾊﾞｽｾﾝﾀｰから北へ徒歩12分 紙屋町東・西電停から北へ徒歩15分 ひろしまめいぷるーぷ（オレンジルート、レモンルート）広島城(護国神社前)バス停から徒歩約6分,0.9,accepted,true,Hiroshima official tourism facility; city-code filtered
official-hiroshima-facility-15,jp-hiroshima,히로시마,JP,広島平和記念資料館,広島平和記念資料館,,place,tourism_facility,hiroshima_tourism_facilities_city_only,15,http://hpmmuseum.jp/,(本館)人影の石、黒こげになった弁当箱等被爆者の遺品や被爆の惨状を示す写真や資料を展示、（東館）核兵器の危険性、広島の被爆前後の歩み等についても紹介,관광시설,広島市中区中島町1-2 平和記念公園内,34.391491,132.45307,,,大人（大学生以上）200円（30人以上の団体は160円）、高校生100円（20人以上の団体は無料）、中学生以下無料,広島平和記念資料館 / (本館)人影の石、黒こげになった弁当箱等被爆者の遺品や被爆の惨状を示す写真や資料を展示、（東館）核兵器の危険性、広島の被爆前後の歩み等についても紹介 / 広島駅（南口）から約20分 バス 広島バス吉島方面行で「平和記念公園」下車 市内電車 紙屋町経由広島港（宇品）行で「袋町」または「中電前」下車、宮島口・江波行で「原爆ドーム前」下車,0.9,accepted,true,Hiroshima official tourism facility; city-code filtered
official-hiroshima-facility-16,jp-hiroshima,히로시마,JP,国立広島原爆死没者追悼平和祈念館,国立広島原爆死没者追悼平和祈念館,,place,tourism_facility,hiroshima_tourism_facilities_city_only,16,https://www.hiro-tsuitokinenkan.go.jp/,原爆死没者を追悼し、永遠の平和を祈念するとともに、被爆体験を後代に継承するための施設。平和祈念・死没者追悼空間では、爆心地付近からみた被爆後の街並みをパノラマで表現。遺影コーナーでは、原爆死没者の名前と遺影を公開している。体験記閲覧室では、被爆体験記や被爆証言映像等の資料を閲覧・視聴できる。情報展示コーナーでは、特定のテーマで被爆体験記を中心に展示,관광시설,広島市中区中島町1-6,34.393011,132.453371,,,0,国立広島原爆死没者追悼平和祈念館 / 原爆死没者を追悼し、永遠の平和を祈念するとともに、被爆体験を後代に継承するための施設。平和祈念・死没者追悼空間では、爆心地付近からみた被爆後の街並みをパノラマで表現。遺影コーナーでは、原爆死没者の名前と遺影を公開している。体験記閲覧室では、被爆体験記や被爆証言映像等の資料を閲覧・視聴できる。情報展示コーナーでは、特定の / 広島駅（南口）から約20分 バス 広島バス吉島方面行で「本通り」下車 市内電車 紙屋町経由広島港（宇品）行で「本通り」下車、宮島口・江波行で「原爆ドーム前」下車,0.9,accepted,true,Hiroshima official tourism facility; city-code filtered
official-hiroshima-facility-17,jp-hiroshima,히로시마,JP,公益財団法人放射線影響研究所,公益財団法人放射線影響研究所,,place,tourism_facility,hiroshima_tourism_facilities_city_only,17,https://www.rerf.or.jp/,原爆被爆者を対象とした調査研究に係る施設,관광시설,広島市南区比治山公園5-2,34.382562,132.472285,,,要事前予約,公益財団法人放射線影響研究所 / 原爆被爆者を対象とした調査研究に係る施設 / 広島電鉄比治山線「比治山下」下車徒歩15分 大学病院行きバス「段原中央」下車、徒歩10分（ｽｶｲｳｫｰｸ経由）,0.9,accepted,true,Hiroshima official tourism facility; city-code filtered
official-hiroshima-facility-18,jp-hiroshima,히로시마,JP,本川小学校平和資料館,本川小学校平和資料館,,place,tourism_facility,hiroshima_tourism_facilities_city_only,18,https://www.hiroshima-navi.or.jp/post/006058.html,昭和3年（1928年）に広島で初めて建てられた鉄筋３階建ての校舎の一部で、原爆の被害を受けた状態をそのまま残し、被爆の「証」として保存。「展示室」に被爆の様子を写した写真、被爆した遺物などを展示。,관광시설,広島市中区本川町1-5-39,34.396207,132.450861,,,団体の場合は要予約、小学校のHP参照,本川小学校平和資料館 / 昭和3年（1928年）に広島で初めて建てられた鉄筋３階建ての校舎の一部で、原爆の被害を受けた状態をそのまま残し、被爆の「証」として保存。「展示室」に被爆の様子を写した写真、被爆した遺物などを展示。 / ﾊﾞｽ・市内電車「本川町」下車、徒歩2分,0.9,accepted,true,Hiroshima official tourism facility; city-code filtered
official-hiroshima-facility-19,jp-hiroshima,히로시마,JP,袋町小学校平和資料館,袋町小学校平和資料館,,place,tourism_facility,hiroshima_tourism_facilities_city_only,19,http://www.fukuromachi-e.edu.city.hiroshima.jp/shiryoukan-index.htm,＜1階＞被爆時、わが子の安否を問う保護者の伝言、被爆した教え子をやっと探し当てた教師の伝言、わが子の死を伝える悲しみの伝言などが壁にそのまま残されている、＜地階＞伝言発見のいきさつをコンパクトにまとめたビデオ(12分)は見る人の胸を打つ。,관광시설,広島市中区袋町6-36,34.391552,132.458247,,,0,袋町小学校平和資料館 / ＜1階＞被爆時、わが子の安否を問う保護者の伝言、被爆した教え子をやっと探し当てた教師の伝言、わが子の死を伝える悲しみの伝言などが壁にそのまま残されている、＜地階＞伝言発見のいきさつをコンパクトにまとめたビデオ(12分)は見る人の胸を打つ。 / 広島電鉄「袋町」から徒歩2分 アストラムライン「本通り」から徒歩3分,0.9,accepted,true,Hiroshima official tourism facility; city-code filtered
official-hiroshima-facility-20,jp-hiroshima,히로시마,JP,広島市健康づくりセンター健康科学館,広島市健康づくりセンター健康科学館,,place,tourism_facility,hiroshima_tourism_facilities_city_only,20,http://www.kenkou.city.hiroshima.jp/,人の体のしくみや働き、生活習慣病予防等について、見て、触れて、子供から大人までが楽しみながら学べる。国内で数少ない本格的な健康教育施設。 脳、目・耳・鼻などの拡大模型、健康ﾗｲﾌﾞﾗﾘｰ、各種ｸﾞﾗﾌｨｯｸﾊﾟﾈﾙ、ﾄｰﾀﾙﾍﾙｽｼｱﾀｰ,관광시설,広島市中区千田町三丁目8-6,34.376321,132.457266,,,大人370円、小人(高校生・相当者)・大人(65歳以上)180円、中学生以下無料 団体30名以上大人290円、小人(高校生・相当者)・大人(65歳以上)130円、中学生以下無料,広島市健康づくりセンター健康科学館 / 人の体のしくみや働き、生活習慣病予防等について、見て、触れて、子供から大人までが楽しみながら学べる。国内で数少ない本格的な健康教育施設。 脳、目・耳・鼻などの拡大模型、健康ﾗｲﾌﾞﾗﾘｰ、各種ｸﾞﾗﾌｨｯｸﾊﾟﾈﾙ、ﾄｰﾀﾙﾍﾙｽｼｱﾀｰ / 電車 広島電鉄紙屋町経由広島港（宇品）行及び広電本社前行「広電本社前」下車徒歩3分 バス 広島電鉄八丁堀経由仁保沖町行「御幸橋」下車徒歩5分、広島バス御幸通り経由広島港行及びアルパーク行「広電前」下車徒歩3分,0.9,accepted,true,Hiroshima official tourism facility; city-code filtered
official-hiroshima-facility-21,jp-hiroshima,히로시마,JP,広島市江波山気象館,広島市江波山気象館,,place,tourism_facility,hiroshima_tourism_facilities_city_only,21,http://www.ebayama.jp/,全国初の「気象」をテーマにした博物館。建物は、昭和9年に建設された広島地方気象台の旧庁舎を保存整備したもので被爆建物でもある。さまざまな気象情報や天気予報のしくみ、雲の中に入る体験、5、15、20ｍ／ｓの風の体験のほかﾋﾞﾃﾞｵｺｰﾅｰや気象に関する図書が閲覧できる。(ｺﾋﾟｰ可、貸出不可),관광시설,広島市中区江波南一丁目40-1,34.366226,132.434982,,,大人100円、高校生相当50円、シニア50円（65歳以上）、中学生以下無料 団体30名以上大人80円、高校生相当40円、シニア40円（65歳以上）,広島市江波山気象館 / 全国初の「気象」をテーマにした博物館。建物は、昭和9年に建設された広島地方気象台の旧庁舎を保存整備したもので被爆建物でもある。さまざまな気象情報や天気予報のしくみ、雲の中に入る体験、5、15、20ｍ／ｓの風の体験のほかﾋﾞﾃﾞｵｺｰﾅｰや気象に関する図書が閲覧できる。(ｺﾋﾟｰ可、貸出不可) / バス 広島電鉄江波方面行バス「江波栄町」下車徒歩10分 電車 広島電鉄江波行「江波（終点）」下車徒歩約15分,0.9,accepted,true,Hiroshima official tourism facility; city-code filtered
official-hiroshima-facility-22,jp-hiroshima,히로시마,JP,頼山陽史跡資料館,頼山陽史跡資料館,,place,tourism_facility,hiroshima_tourism_facilities_city_only,22,https://www.pref.hiroshima.lg.jp/site/raisanyou/,頼山陽に関する資料をはじめ、広島の近世文化に関するさまざまな資料の展示。国の史跡「頼山陽居室」の他、展示室、茶室、日本庭園あり。,관광시설,広島市中区袋町5-15,34.391491,132.457244,,,常設展一般200円、大学生150円、65歳以上及び小中高生 無料 団体(20名以上)一般160円、大学生120円 特別展一般300円、65歳以上240円、小中高生150円 団体(15名以上)一般240円、小中高生120円,頼山陽史跡資料館 / 頼山陽に関する資料をはじめ、広島の近世文化に関するさまざまな資料の展示。国の史跡「頼山陽居室」の他、展示室、茶室、日本庭園あり。 / 広島駅から市内電車・ﾊﾞｽ利用で15分、 市内電車紙屋町経由広島港(宇品)行「袋町」下車すぐ 観音マリーナホップ、吉島、宇品方面行バス「袋町」下車すぐ,0.9,accepted,true,Hiroshima official tourism facility; city-code filtered
official-hiroshima-facility-23,jp-hiroshima,히로시마,JP,広島市現代美術館,広島市現代美術館,,place,tourism_facility,hiroshima_tourism_facilities_city_only,23,https://www.hiroshima-moca.jp/,公立では全国初の現代美術専門の美術館として開館。建物の外観はヨーロッパの広場や日本の蔵のデザインなどを取り入れ、建物全体が「現代美術館」となっている。国内外の第2次世界大戦以降の現代美術を収集・展示。,관광시설,広島市南区比治山公園1-1,34.386371,132.473327,,,コレクション展 一般300円、大学生200円、高校生・65歳以上150円 団体30名以上一般250円、大学150円、高校生・65歳以上100円 特別展各展覧会ごとに設定,広島市現代美術館 / 公立では全国初の現代美術専門の美術館として開館。建物の外観はヨーロッパの広場や日本の蔵のデザインなどを取り入れ、建物全体が「現代美術館」となっている。国内外の第2次世界大戦以降の現代美術を収集・展示。 / 広島駅から広島電鉄（5番「広島港」行）「比治山下」下車、約500m 八丁堀（ヤマダ電機前）から比治山トンネル経由「大学病院」「旭町」行バス「段原中央」下車、動く歩道比治山スカイウォーク経由で約550ｍ 市内循環ﾊﾞｽひろしまめいぷるーぷ「現代美術館前」下車、約100m,0.9,accepted,true,Hiroshima official tourism facility; city-code filtered
official-hiroshima-facility-24,jp-hiroshima,히로시마,JP,広島市郷土資料館,広島市郷土資料館,,place,tourism_facility,hiroshima_tourism_facilities_city_only,24,http://www.cf.city.hiroshima.jp/kyodo/html/00top/topfrm.htm,旧宇品陸軍糧秣支廠の赤れんが造りの建物を保存・活用した博物館。広島市と周辺地域の伝統的地場産業や昔の人々の暮らしに関する調査研究、資料の収集、展示、参考図書の開架等を行なっている。年に5回程度の企画展・特別展を開催。,관광시설,広島市南区宇品御幸二丁目6-20,34.365983,132.461845,,,大人100円、シニア50円、高校生50円、中学生以下無料 団体30名以上大人80円、シニア30円、高校生30円,広島市郷土資料館 / 旧宇品陸軍糧秣支廠の赤れんが造りの建物を保存・活用した博物館。広島市と周辺地域の伝統的地場産業や昔の人々の暮らしに関する調査研究、資料の収集、展示、参考図書の開架等を行なっている。年に5回程度の企画展・特別展を開催。 / 広島電鉄広島港(宇品)行または宇品二丁目行で「宇品二丁目」下車、300m 広島バス21-1御幸通り経由広島港行で「御幸2丁目」下車200m、21-2ベイシティ宇品経由広島港行で「ベイシティ宇品」下車600m,0.9,accepted,true,Hiroshima official tourism facility; city-code filtered
official-hiroshima-facility-25,jp-hiroshima,히로시마,JP,広島大学医学部医学資料館,広島大学医学部医学資料館,,place,tourism_facility,hiroshima_tourism_facilities_city_only,25,https://www.hiroshima-u.ac.jp/med/about/Institute_of_History_of_Medicine,"和洋の医学書約3,600冊を所蔵するほか、1階展示室で約500点の資料を展示。",관광시설,広島市南区霞一丁目2-3,34.380563,132.477393,,,0,"広島大学医学部医学資料館 / 和洋の医学書約3,600冊を所蔵するほか、1階展示室で約500点の資料を展示。 / 大学病院行バス終点下車、徒歩1分",0.9,accepted,true,Hiroshima official tourism facility; city-code filtered
official-hiroshima-facility-26,jp-hiroshima,히로시마,JP,ヌマジ交通ミュージアム（広島市交通科学館）,ヌマジ交通ミュージアム（広島市交通科学館）,,place,tourism_facility,hiroshima_tourism_facilities_city_only,26,http://www.vehicle.city.hiroshima.jp/VEHICLE_HP/Contents/01_home/0100_top/pg_top.html,"直径20ｍの巨大交通パノラマ模型や、世界の乗り物のミニチュア模型約2,000点をはじめ、ライブラリー、クラフトルームや多目的ホールなど。",관광시설,広島市安佐南区長楽寺二丁目12-2,34.470698,132.428201,,,1階無料 2階以上有料大人510円、小人250円(高校生相当年齢)、シニア(65歳以上)250円 団体30名以上大人410円、小人200円、シニア(65歳以上)200円 おもしろ自転車30分100円、バッテリーカート1回100円,"ヌマジ交通ミュージアム（広島市交通科学館） / 直径20ｍの巨大交通パノラマ模型や、世界の乗り物のミニチュア模型約2,000点をはじめ、ライブラリー、クラフトルームや多目的ホールなど。 / アストラムライン「長楽寺」下車徒歩5分",0.9,accepted,true,Hiroshima official tourism facility; city-code filtered
official-hiroshima-facility-27,jp-hiroshima,히로시마,JP,泉美術館,泉美術館,,place,tourism_facility,hiroshima_tourism_facilities_city_only,27,http://www.izumi-museum.jp/,近・現代国内外の洋画・彫刻・日本画、そして中国の東洋陶器、珠玉の名作の数々を収蔵・展示,관광시설,広島市西区商工センター二丁目3-1エクセル本店5Ｆ,34.373346,132.399019,,,大人300円、学生150円 団体10名以上 大人240円、学生120円、(中学生以下は無料)、※特別展は別途入場料,泉美術館 / 近・現代国内外の洋画・彫刻・日本画、そして中国の東洋陶器、珠玉の名作の数々を収蔵・展示 / JR山陽本線「新井口」駅から徒歩約10分 広島電鉄宮島線「草津南」から徒歩約７分,0.9,accepted,true,Hiroshima official tourism facility; city-code filtered
official-hiroshima-facility-28,jp-hiroshima,히로시마,JP,広島市まんが図書館,広島市まんが図書館,,place,tourism_facility,hiroshima_tourism_facilities_city_only,28,https://www.library.city.hiroshima.jp/manga/,漫画専門の公立図書館蔵書約15万冊、時代を代表とするまんがから漫画関係の資料まで,관광시설,広島市南区比治山公園１-４,34.387747,132.474454,,,0,広島市まんが図書館 / 漫画専門の公立図書館蔵書約15万冊、時代を代表とするまんがから漫画関係の資料まで / 広島電鉄「比治山下」下車徒歩約800m 比治山トンネル経由「旭町」「大学病院」行バス「段原中央」下車徒歩比治山スカイウォーク経由で約950m ひろしま観光ループバス“ひろしまめいぷる～ぷ(オレンジルート)”「現代美術館前(まんが図書館)」下車すぐ,0.9,accepted,true,Hiroshima official tourism facility; city-code filtered
official-hiroshima-facility-29,jp-hiroshima,히로시마,JP,広島市まんが図書館あさ閲覧室,広島市まんが図書館あさ閲覧室,,place,tourism_facility,hiroshima_tourism_facilities_city_only,29,https://www.library.city.hiroshima.jp/guide/asa/,"広島市まんが図書館分室、蔵書約5万7,000冊、漫画資料の閲覧及び貸出を中心としたサービス、学習・教養漫画も所蔵",관광시설,広島市安佐南区上安二丁目30-15,34.476217,132.444885,,,0,"広島市まんが図書館あさ閲覧室 / 広島市まんが図書館分室、蔵書約5万7,000冊、漫画資料の閲覧及び貸出を中心としたサービス、学習・教養漫画も所蔵 / アストラムライン「上安」下車徒歩約1分 上安バスターミナル下車徒歩約1分",0.9,accepted,true,Hiroshima official tourism facility; city-code filtered
official-hiroshima-facility-30,jp-hiroshima,히로시마,JP,広島市水産振興センター(魚と漁業の資料展示室),広島市水産振興センター(魚と漁業の資料展示室),,place,tourism_facility,hiroshima_tourism_facilities_city_only,30,http://www.haff.city.hiroshima.jp/suisansc/tenji_top.html,瀬戸内海、特に広島湾や太田川に生息する魚介類、栽培漁業、カキ養殖方法及び昔の漁村の生活と漁具を展示、ビデオ上映等,관광시설,広島市西区商工ｾﾝﾀｰ八丁目5-1,34.362265,132.380713,,,0,広島市水産振興センター(魚と漁業の資料展示室) / 瀬戸内海、特に広島湾や太田川に生息する魚介類、栽培漁業、カキ養殖方法及び昔の漁村の生活と漁具を展示、ビデオ上映等 / ・広島バス、広島駅発商工センター行「井口車庫」下車徒歩約5分 ・広島電鉄宮島線「修大附属鈴峯前」下車徒歩約15分,0.9,accepted,true,Hiroshima official tourism facility; city-code filtered
official-hiroshima-facility-31,jp-hiroshima,히로시마,JP,広島市水道資料館,広島市水道資料館,,place,tourism_facility,hiroshima_tourism_facilities_city_only,31,http://www.water.city.hiroshima.jp/jigyo/library/,歴史的資料の展示や、主な水源である太田川と私たちの暮らしとの関わりなどについて、展示やマンガなどでわかりやすく学べる。,관광시설,広島市東区牛田新町一丁目8-1（牛田浄水場内）,34.417593,132.467201,,,0,広島市水道資料館 / 歴史的資料の展示や、主な水源である太田川と私たちの暮らしとの関わりなどについて、展示やマンガなどでわかりやすく学べる。 / アストラムライン「牛田駅」下車徒歩10分 広島バスセンターから高陽方面行「東区スポーツセンター「入口」下車徒歩10分,0.9,accepted,true,Hiroshima official tourism facility; city-code filtered
official-hiroshima-facility-33,jp-hiroshima,히로시마,JP,おりづるタワー,おりづるタワー,,place,tourism_facility,hiroshima_tourism_facilities_city_only,33,https://www.orizurutower.jp/,,관광시설,広島市中区大手町1-2-1,34.395671,132.454692,,,"大人1,700円、中・高生900円、小学生700円、幼児(４歳以上)500円 団体15名以上大人1,500円、中・高生800円、小学生600円、幼児(４歳以上)400円 学校団体15名以上大人1,200円、中・高生700円、小学生500円、幼児(４歳以上)300円 障がい者大人800円、中・高生400円、小学生300円、幼児(４歳以上)200円",おりづるタワー / JR広島駅(南口)から市内電車／宮島口・江波行で約20分「原爆ドーム前」下車すぐ 広島駅より広島市内循環バス「めいぷるーぷ」にて約12分「原爆ドーム前」下車徒歩すぐ,0.9,accepted,true,Hiroshima official tourism facility; city-code filtered
official-hiroshima-event-131,jp-hiroshima,히로시마,JP,【サイエンスショー】「びっくり実験大集合！」 （江波山気象館）,【サイエンスショー】「びっくり実験大集合！」 （江波山気象館）,,event,official_event,hiroshima_events,131,https://www.city.hiroshima.lg.jp/soshiki/46/418532.html,気象や科学に関する楽しい実験を行います。 対象：どなたでも 定員：各回先着40人,イベント、子ども、文化・芸術、講演・講座・セミナー,広島市中区江波山1-40-1 江波山気象館,,,2025/3/29,2025/3/30,無料,【サイエンスショー】「びっくり実験大集合！」 （江波山気象館） / 広島市中区江波山1-40-1 江波山気象館 / 2025/3/29 / イベント、子ども、文化・芸術、講演・講座・セミナー / 気象や科学に関する楽しい実験を行います。 対象：どなたでも 定員：各回先着40人,0.78,accepted_time_sensitive,true,"Hiroshima official event; time-sensitive, discount or exclude if expired"
official-hiroshima-event-132,jp-hiroshima,히로시마,JP,【サイエンスショー】「びっくり実験大集合！」 （江波山気象館）,【サイエンスショー】「びっくり実験大集合！」 （江波山気象館）,,event,official_event,hiroshima_events,132,https://www.city.hiroshima.lg.jp/soshiki/46/418531.html,気象や科学に関する楽しい実験を行います。 対象：どなたでも 定員：各回先着40人,イベント、子ども、文化・芸術、講演・講座・セミナー,広島市中区江波山1-40-1 江波山気象館,,,2025/3/22,2025/3/23,無料,【サイエンスショー】「びっくり実験大集合！」 （江波山気象館） / 広島市中区江波山1-40-1 江波山気象館 / 2025/3/22 / イベント、子ども、文化・芸術、講演・講座・セミナー / 気象や科学に関する楽しい実験を行います。 対象：どなたでも 定員：各回先着40人,0.78,accepted_time_sensitive,true,"Hiroshima official event; time-sensitive, discount or exclude if expired"
official-hiroshima-event-133,jp-hiroshima,히로시마,JP,【サイエンスショー】「びっくり実験大集合！」（江波山気象館）,【サイエンスショー】「びっくり実験大集合！」（江波山気象館）,,event,official_event,hiroshima_events,133,https://www.city.hiroshima.lg.jp/soshiki/46/418530.html,気象や科学に関する楽しい実験を行います。 対象：どなたでも 定員：各回先着40人,イベント、子ども、文化・芸術、講演・講座・セミナー,広島市中区江波山1-40-1 江波山気象館,,,2025/3/20,2025/3/20,無料,【サイエンスショー】「びっくり実験大集合！」（江波山気象館） / 広島市中区江波山1-40-1 江波山気象館 / 2025/3/20 / イベント、子ども、文化・芸術、講演・講座・セミナー / 気象や科学に関する楽しい実験を行います。 対象：どなたでも 定員：各回先着40人,0.78,accepted_time_sensitive,true,"Hiroshima official event; time-sensitive, discount or exclude if expired"
official-hiroshima-event-134,jp-hiroshima,히로시마,JP,【サイエンスショー】「びっくり実験大集合！」（江波山気象館）,【サイエンスショー】「びっくり実験大集合！」（江波山気象館）,,event,official_event,hiroshima_events,134,https://www.city.hiroshima.lg.jp/soshiki/46/418529.html,気象や科学に関する楽しい実験を行います。 対象：どなたでも 定員：各回先着40人,イベント、子ども、文化・芸術、講演・講座・セミナー,広島市中区江波山1-40-1 江波山気象館,,,2025/3/15,2025/3/16,無料,【サイエンスショー】「びっくり実験大集合！」（江波山気象館） / 広島市中区江波山1-40-1 江波山気象館 / 2025/3/15 / イベント、子ども、文化・芸術、講演・講座・セミナー / 気象や科学に関する楽しい実験を行います。 対象：どなたでも 定員：各回先着40人,0.78,accepted_time_sensitive,true,"Hiroshima official event; time-sensitive, discount or exclude if expired"
official-hiroshima-event-490,jp-hiroshima,히로시마,JP,【サイエンスショー】「びっくり実験大集合！」（江波山気象館）,【サイエンスショー】「びっくり実験大集合！」（江波山気象館）,,event,official_event,hiroshima_events,490,https://www.city.hiroshima.lg.jp/soshiki/46/417497.html,気象や科学に関する楽しい実験を行います。 対象：どなたでも 定員：各回先着40人,イベント、子ども、文化・芸術、講演・講座・セミナー,広島市中区江波山1-40-1 江波山気象館,,,2025/3/8,2025/3/9,無料,【サイエンスショー】「びっくり実験大集合！」（江波山気象館） / 広島市中区江波山1-40-1 江波山気象館 / 2025/3/8 / イベント、子ども、文化・芸術、講演・講座・セミナー / 気象や科学に関する楽しい実験を行います。 対象：どなたでも 定員：各回先着40人,0.78,accepted_time_sensitive,true,"Hiroshima official event; time-sensitive, discount or exclude if expired"
official-hiroshima-event-491,jp-hiroshima,히로시마,JP,【サイエンスショー】「びっくり実験大集合！」（江波山気象館）,【サイエンスショー】「びっくり実験大集合！」（江波山気象館）,,event,official_event,hiroshima_events,491,https://www.city.hiroshima.lg.jp/soshiki/46/417494.html,気象や科学に関する楽しい実験を行います。 対象：どなたでも 定員：各回先着40人,イベント、子ども、文化・芸術、講演・講座・セミナー,広島市中区江波山1-40-1 江波山気象館,,,2025/3/1,2025/3/2,無料,【サイエンスショー】「びっくり実験大集合！」（江波山気象館） / 広島市中区江波山1-40-1 江波山気象館 / 2025/3/1 / イベント、子ども、文化・芸術、講演・講座・セミナー / 気象や科学に関する楽しい実験を行います。 対象：どなたでも 定員：各回先着40人,0.78,accepted_time_sensitive,true,"Hiroshima official event; time-sensitive, discount or exclude if expired"
official-hiroshima-event-574,jp-hiroshima,히로시마,JP,令和6年度第2回広島市医療安全推進協議会の開催について（お知らせ）,令和6年度第2回広島市医療安全推進協議会の開催について（お知らせ）,,event,official_event,hiroshima_events,574,https://www.city.hiroshima.lg.jp/soshiki/70/14647.html,,,,,,2025/3/21,2025/3/21,無料,令和6年度第2回広島市医療安全推進協議会の開催について（お知らせ） / 2025/3/21,0.78,accepted_time_sensitive,true,"Hiroshima official event; time-sensitive, discount or exclude if expired"
official-hiroshima-event-695,jp-hiroshima,히로시마,JP,体験型のイベント「防災まなんで あそ防火！」を開催します,体験型のイベント「防災まなんで あそ防火！」を開催します,,event,official_event,hiroshima_events,695,https://www.city.hiroshima.lg.jp/soshiki/294/416964.html,屋外会場では広島市消防局の消防車５台を展示し、実際の活動資機材に触れることが可能です。また、はしご車搭乗や強風体験、子ども用活動服の試着、水消火器訓練などの体験が可能です。 屋内会場では煙や地震の体験をすることができます。 会場でQRコードアンケートに回答いただいた場合、記念品をプレゼントします。,,広島市総合防災センター,,,2025/3/16,2025/3/16,無料,体験型のイベント「防災まなんで あそ防火！」を開催します / 広島市総合防災センター / 2025/3/16 / 屋外会場では広島市消防局の消防車５台を展示し、実際の活動資機材に触れることが可能です。また、はしご車搭乗や強風体験、子ども用活動服の試着、水消火器訓練などの体験が可能です。 屋内会場では煙や地震の体験をすることができます。 会場でQRコードアンケートに回答いただいた場合、記念品をプレゼントします。,0.78,accepted_time_sensitive,true,"Hiroshima official event; time-sensitive, discount or exclude if expired"
official-hiroshima-event-922,jp-hiroshima,히로시마,JP,女性のための健康セミナー,女性のための健康セミナー,,event,official_event,hiroshima_events,922,https://www.city.hiroshima.lg.jp/site/saekiku/364253.html,,子ども、健康・保健,,,,2025/3/5,2025/3/14,無料,女性のための健康セミナー / 2025/3/5 / 子ども、健康・保健,0.78,accepted_time_sensitive,true,"Hiroshima official event; time-sensitive, discount or exclude if expired"
official-hiroshima-event-994,jp-hiroshima,히로시마,JP,【オンライン限定】令和６年度広島市発達障害者支援講演会の開催について,【オンライン限定】令和６年度広島市発達障害者支援講演会の開催について,,event,official_event,hiroshima_events,994,https://www.city.hiroshima.lg.jp/soshiki/84/4664.html,オンラインで知ろう、学ぼう 発達障害のこと【テーマ】発達障害のある人とのコミュニケーションのコツ～障害があると言うけれど～ ※【期間限定】広島市公式YouTubeチャンネルで配信します。 広島市民ならどなたでも御視聴になれます。 （申込制、無料、定員なし）,イベント、子ども、講演・講座・セミナー,【オンライン限定】広島市公式YouTubeチャンネル,,,2025/3/1,2025/4/8,無料,【オンライン限定】令和６年度広島市発達障害者支援講演会の開催について / 【オンライン限定】広島市公式YouTubeチャンネル / 2025/3/1 / イベント、子ども、講演・講座・セミナー / オンラインで知ろう、学ぼう 発達障害のこと【テーマ】発達障害のある人とのコミュニケーションのコツ～障害があると言うけれど～ ※【期間限定】広島市公式YouTubeチャンネルで配信します。 広島市民ならどなたでも御視聴になれます。 （申込制、無料、定員なし）,0.78,accepted_time_sensitive,true,"Hiroshima official event; time-sensitive, discount or exclude if expired"
official-hiroshima-event-1023,jp-hiroshima,히로시마,JP,広島城アカデミック講座・生涯学習支援講座「鉄と広島デルタ、そして広島城」（広島城）,広島城アカデミック講座・生涯学習支援講座「鉄と広島デルタ、そして広島城」（広島城）,,event,official_event,hiroshima_events,1023,https://www.city.hiroshima.lg.jp/soshiki/46/415917.html,広島城が立地する広島デルタの成り立ちと太田川流域の製鉄との関係を探ります。 ※いきいきポイント対象 対象：高校生以上 定員：100名（申込多数の場合は抽選） 参加費：無料 申込：往復はがきに氏名・住所・電話番号を明記の上、広島城アカデミック講座までお申込みください。（はがき1枚につき1名有効） 締切：2月28日(金)必着,イベント、子ども、文化・芸術,広島市中区袋町6‐36 合人社ひと・まちプラザ 5階研修室,,,2025/3/16,2025/3/16,無料,広島城アカデミック講座・生涯学習支援講座「鉄と広島デルタ、そして広島城」（広島城） / 広島市中区袋町6‐36 合人社ひと・まちプラザ 5階研修室 / 2025/3/16 / イベント、子ども、文化・芸術 / 広島城が立地する広島デルタの成り立ちと太田川流域の製鉄との関係を探ります。 ※いきいきポイント対象 対象：高校生以上 定員：100名（申込多数の場合は抽選） 参加費：無料 申込：往復はがきに氏名・住所・電話番号を明記の上、広島城アカデミック講座までお申込みください。（はがき1枚につき1名有効） 締切：2月28日(金)必,0.78,accepted_time_sensitive,true,"Hiroshima official event; time-sensitive, discount or exclude if expired"
official-hiroshima-event-1093,jp-hiroshima,히로시마,JP,【小学生工作教室】 「リモコンアストラムライン」（ヌマジ交通ミュージアム）,【小学生工作教室】 「リモコンアストラムライン」（ヌマジ交通ミュージアム）,,event,official_event,hiroshima_events,1093,https://www.city.hiroshima.lg.jp/soshiki/46/415664.html,対象：小学1～6年生（小学4年生以下は保護者の同伴が必要） 材料費：600円 定員：各12組 （1組の人数は保護者を含めて4人まで） 申込み：往復はがきかwebで。往復はがきでの申込みは、実施日・工作名・氏名・学年と年齢・保護者名・住所・電話番号をご記入の上、2月26日(水)必着でヌマジ交通ミュージアムまでお送りください。応募者多数の場合は抽選。,イベント、子ども、文化・芸術,広島市安佐南区長楽寺2-12-2 ヌマジ交通ミュージアム 1階クラフトルーム,,,2025/3/8,2025/3/8,有料,【小学生工作教室】 「リモコンアストラムライン」（ヌマジ交通ミュージアム） / 広島市安佐南区長楽寺2-12-2 ヌマジ交通ミュージアム 1階クラフトルーム / 2025/3/8 / イベント、子ども、文化・芸術 / 対象：小学1～6年生（小学4年生以下は保護者の同伴が必要） 材料費：600円 定員：各12組 （1組の人数は保護者を含めて4人まで） 申込み：往復はがきかwebで。往復はがきでの申込みは、実施日・工作名・氏名・学年と年齢・保護者名・住所・電話番号をご記入の上、2月26日(水)必着でヌマジ交通ミュージアムまでお送りくださ,0.78,accepted_time_sensitive,true,"Hiroshima official event; time-sensitive, discount or exclude if expired"
official-hiroshima-event-1109,jp-hiroshima,히로시마,JP,【ゲーム＆実験体験】（ヌマジ交通ミュージアム）,【ゲーム＆実験体験】（ヌマジ交通ミュージアム）,,event,official_event,hiroshima_events,1109,https://www.city.hiroshima.lg.jp/soshiki/46/415634.html,(1)ピンポン玉入れゲーム ピンポン玉5個を転がして得点を競うゲーム (2)ステーションストップゲーム 牛乳パック新幹線を坂道から転がして駅にぴったり止められるかを競うゲーム (3)サイエンスコーナー ドライヤーの風でものを浮かせてみよう 受付：各回終了３０分前まで 参加費：無料 対象：幼児～小学生と保護者,イベント、子ども、文化・芸術,広島市安佐南区長楽寺2-12-2 ヌマジ交通ミュージアム 1階多目的ホール,,,2025/2/22,2025/2/24,無料,【ゲーム＆実験体験】（ヌマジ交通ミュージアム） / 広島市安佐南区長楽寺2-12-2 ヌマジ交通ミュージアム 1階多目的ホール / 2025/2/22 / イベント、子ども、文化・芸術 / (1)ピンポン玉入れゲーム ピンポン玉5個を転がして得点を競うゲーム (2)ステーションストップゲーム 牛乳パック新幹線を坂道から転がして駅にぴったり止められるかを競うゲーム (3)サイエンスコーナー ドライヤーの風でものを浮かせてみよう 受付：各回終了３０分前まで 参加費：無料 対象：幼児～小学生と保護者,0.78,accepted_time_sensitive,true,"Hiroshima official event; time-sensitive, discount or exclude if expired"
official-hiroshima-event-1488,jp-hiroshima,히로시마,JP,【みんなで遊ぼう！ビークルパーク】クラフト体験（ヌマジ交通ミュージアム）,【みんなで遊ぼう！ビークルパーク】クラフト体験（ヌマジ交通ミュージアム）,,event,official_event,hiroshima_events,1488,https://www.city.hiroshima.lg.jp/soshiki/46/414448.html,22日(土)500系 23日(日)N700系 24日(月祝)ドクターイエロー 対象：幼児～小学生と保護者 材料費：100円 定員：各回15組（1組保護者含めて最大6人まで） ※各回開始30分前より整理券配布。,イベント、子ども、文化・芸術、講演・講座・セミナー,広島市安佐南区長楽寺2-12-2 ヌマジ交通ミュージアム 1階多目的ホール,,,2025/2/22,2025/2/24,有料,【みんなで遊ぼう！ビークルパーク】クラフト体験（ヌマジ交通ミュージアム） / 広島市安佐南区長楽寺2-12-2 ヌマジ交通ミュージアム 1階多目的ホール / 2025/2/22 / イベント、子ども、文化・芸術、講演・講座・セミナー / 22日(土)500系 23日(日)N700系 24日(月祝)ドクターイエロー 対象：幼児～小学生と保護者 材料費：100円 定員：各回15組（1組保護者含めて最大6人まで） ※各回開始30分前より整理券配布。,0.78,accepted_time_sensitive,true,"Hiroshima official event; time-sensitive, discount or exclude if expired"
official-hiroshima-event-1489,jp-hiroshima,히로시마,JP,ネイチャーサイエンス「江波山で春をさがそう！」（江波山気象館）,ネイチャーサイエンス「江波山で春をさがそう！」（江波山気象館）,,event,official_event,hiroshima_events,1489,https://www.city.hiroshima.lg.jp/soshiki/46/414446.html,江波山公園内の自然を素材に観察やゲームを行います。※天候により館内で実施します。 参加費：50円 対象：どなたでも（小学生以下は保護者同伴） 定員：先着6組（1組5人まで） 申込み：2月25日(火)から江波山気象館のHPで受付。,イベント、子ども、文化・芸術、講演・講座・セミナー,広島市中区江波山1-40-1 江波山気象館,,,2025/3/23,2025/3/23,無料,ネイチャーサイエンス「江波山で春をさがそう！」（江波山気象館） / 広島市中区江波山1-40-1 江波山気象館 / 2025/3/23 / イベント、子ども、文化・芸術、講演・講座・セミナー / 江波山公園内の自然を素材に観察やゲームを行います。※天候により館内で実施します。 参加費：50円 対象：どなたでも（小学生以下は保護者同伴） 定員：先着6組（1組5人まで） 申込み：2月25日(火)から江波山気象館のHPで受付。,0.78,accepted_time_sensitive,true,"Hiroshima official event; time-sensitive, discount or exclude if expired"
official-hiroshima-event-1490,jp-hiroshima,히로시마,JP,【サイエンスワークショップ】「スライダー貯金箱」（江波山気象館）,【サイエンスワークショップ】「スライダー貯金箱」（江波山気象館）,,event,official_event,hiroshima_events,1490,https://www.city.hiroshima.lg.jp/soshiki/46/414445.html,コインの転がる様子が楽しめる貯金箱を作ります。 対象：どなたでも 材料費：100円 定員：各回先着12人 申込：2月25日(火)から江波山気象館のホームページで受付,イベント、子ども、文化・芸術,広島市中区江波山1-40-1 江波山気象館,,,2025/3/9,2025/3/9,無料,【サイエンスワークショップ】「スライダー貯金箱」（江波山気象館） / 広島市中区江波山1-40-1 江波山気象館 / 2025/3/9 / イベント、子ども、文化・芸術 / コインの転がる様子が楽しめる貯金箱を作ります。 対象：どなたでも 材料費：100円 定員：各回先着12人 申込：2月25日(火)から江波山気象館のホームページで受付,0.78,accepted_time_sensitive,true,"Hiroshima official event; time-sensitive, discount or exclude if expired"
official-hiroshima-event-1491,jp-hiroshima,히로시마,JP,【サイエンスショー】「パチパチ静電気のひみつ」（江波山気象館）,【サイエンスショー】「パチパチ静電気のひみつ」（江波山気象館）,,event,official_event,hiroshima_events,1491,https://www.city.hiroshima.lg.jp/soshiki/46/414439.html,静電気を使ってビニールひものクラゲを浮かべる実験等をします。 対象：どなたでも 定員：各回先着40人,イベント、子ども、文化・芸術、講演・講座・セミナー,広島市中区江波山1-40-1 江波山気象館,,,2025/2/23,2025/2/24,無料,【サイエンスショー】「パチパチ静電気のひみつ」（江波山気象館） / 広島市中区江波山1-40-1 江波山気象館 / 2025/2/23 / イベント、子ども、文化・芸術、講演・講座・セミナー / 静電気を使ってビニールひものクラゲを浮かべる実験等をします。 対象：どなたでも 定員：各回先着40人,0.78,accepted_time_sensitive,true,"Hiroshima official event; time-sensitive, discount or exclude if expired"
official-hiroshima-event-1499,jp-hiroshima,히로시마,JP,【大人向け教室】「大人の染色体験」（広島市郷土資料館）,【大人向け教室】「大人の染色体験」（広島市郷土資料館）,,event,official_event,hiroshima_events,1499,https://www.city.hiroshima.lg.jp/soshiki/46/414425.html,透け感のある生地（50cm×170cm）を藍で染めておしゃれなストールにします。 対象：18歳以上 参加費：1800円（ストール代を含む） 定員：20名。応募者多数の場合は抽選。 申し込み：2月1日(土曜日)から5日(水曜日)に電話かFaxで郷土資料館まで。,イベント、子ども、文化・芸術、講演・講座・セミナー,広島市南区宇品御幸二丁目6-20 広島市郷土資料館,,,2025/2/22,2025/2/22,有料,【大人向け教室】「大人の染色体験」（広島市郷土資料館） / 広島市南区宇品御幸二丁目6-20 広島市郷土資料館 / 2025/2/22 / イベント、子ども、文化・芸術、講演・講座・セミナー / 透け感のある生地（50cm×170cm）を藍で染めておしゃれなストールにします。 対象：18歳以上 参加費：1800円（ストール代を含む） 定員：20名。応募者多数の場合は抽選。 申し込み：2月1日(土曜日)から5日(水曜日)に電話かFaxで郷土資料館まで。,0.78,accepted_time_sensitive,true,"Hiroshima official event; time-sensitive, discount or exclude if expired"
official-hiroshima-event-2224,jp-hiroshima,히로시마,JP,【安芸区】レディース健康教室を開催します,【安芸区】レディース健康教室を開催します,,event,official_event,hiroshima_events,2224,https://www.city.hiroshima.lg.jp/site/akiku/411699.html,【対象】 安芸区在住の女性 【内容】 第1部：簡単にできるヘルシーランチ（講話、調理実演、試食）先着12名 第2部：大人のヨガ教室 先着20名 ＊1部、2部のどちらか一方のみの予約でも可です。 ＊託児付き（各部先着4名） 【持ち物】 第1部：材料費700円、エプロン、三角巾、手拭き、食器用布巾、マスク、飲み物 第2部：バスタオル、飲み物、タオル 各 部：お持ちの方は「高齢者いきいき活動ポイント手帳」,講演・講座・セミナー、健康・保健,安芸区総合福祉センター 第1部：栄養相談室（2階） 第2部：乳幼児相談室（2階）,,,2025/3/5,2025/3/7,有料,【安芸区】レディース健康教室を開催します / 安芸区総合福祉センター 第1部：栄養相談室（2階） 第2部：乳幼児相談室（2階） / 2025/3/5 / 講演・講座・セミナー、健康・保健 / 【対象】 安芸区在住の女性 【内容】 第1部：簡単にできるヘルシーランチ（講話、調理実演、試食）先着12名 第2部：大人のヨガ教室 先着20名 ＊1部、2部のどちらか一方のみの予約でも可です。 ＊託児付き（各部先着4名） 【持ち物】 第1部：材料費700円、エプロン、三角巾、手拭き、食器用布巾、マスク、飲み物 第2部：,0.78,accepted_time_sensitive,true,"Hiroshima official event; time-sensitive, discount or exclude if expired"
official-hiroshima-event-2383,jp-hiroshima,히로시마,JP,2025男女共同参画セミナーの開催,2025男女共同参画セミナーの開催,,event,official_event,hiroshima_events,2383,https://www.city.hiroshima.lg.jp/soshiki/53/201789.html,第1部 講演 ・テーマ：セクシュアル・マイノリティの選択～家族の現状 ・講 師：広島修道大学人文学部教授 河口 和也氏 第2部 対談 ・同性のカップルを迎え、講師の河口さんとお二人の家族の選択について対談します。,講演・講座・セミナー,ＪＭＳアステールプラザ4階 大会議室Ａ・Ｂ,,,2025/2/22,2025/2/22,無料,2025男女共同参画セミナーの開催 / ＪＭＳアステールプラザ4階 大会議室Ａ・Ｂ / 2025/2/22 / 講演・講座・セミナー / 第1部 講演 ・テーマ：セクシュアル・マイノリティの選択～家族の現状 ・講 師：広島修道大学人文学部教授 河口 和也氏 第2部 対談 ・同性のカップルを迎え、講師の河口さんとお二人の家族の選択について対談します。,0.78,accepted_time_sensitive,true,"Hiroshima official event; time-sensitive, discount or exclude if expired"
official-hiroshima-event-2547,jp-hiroshima,히로시마,JP,【サイエンスワークショップ】「フェルトボール」（江波山気象館）,【サイエンスワークショップ】「フェルトボール」（江波山気象館）,,event,official_event,hiroshima_events,2547,https://www.city.hiroshima.lg.jp/soshiki/46/410470.html,羊毛をせっけん水で丸めてふわふわのボールを作ります。 対象：どなたでも 材料費：70円 定員：各回先着12人 申込：1月25日(土)から江波山気象館のホームページで受付,イベント、子ども、文化・芸術,広島市中区江波山1-40-1 江波山気象館,,,2025/2/22,2025/2/22,無料,【サイエンスワークショップ】「フェルトボール」（江波山気象館） / 広島市中区江波山1-40-1 江波山気象館 / 2025/2/22 / イベント、子ども、文化・芸術 / 羊毛をせっけん水で丸めてふわふわのボールを作ります。 対象：どなたでも 材料費：70円 定員：各回先着12人 申込：1月25日(土)から江波山気象館のホームページで受付,0.78,accepted_time_sensitive,true,"Hiroshima official event; time-sensitive, discount or exclude if expired"
official-hiroshima-event-2549,jp-hiroshima,히로시마,JP,【企画展】「ボールでチャレンジ！科学あそび広場」（江波山気象館）,【企画展】「ボールでチャレンジ！科学あそび広場」（江波山気象館）,,event,official_event,hiroshima_events,2549,https://www.city.hiroshima.lg.jp/soshiki/46/410468.html,転がる・弾むなどボールを使った科学あそびにチャレンジします。 対象：どなたでも,イベント、子ども、文化・芸術,広島市中区江波山1-40-1 江波山気象館,,,2025/1/25,2025/3/16,無料,【企画展】「ボールでチャレンジ！科学あそび広場」（江波山気象館） / 広島市中区江波山1-40-1 江波山気象館 / 2025/1/25 / イベント、子ども、文化・芸術 / 転がる・弾むなどボールを使った科学あそびにチャレンジします。 対象：どなたでも,0.78,accepted_time_sensitive,true,"Hiroshima official event; time-sensitive, discount or exclude if expired"
official-hiroshima-event-2595,jp-hiroshima,히로시마,JP,[ 少年非行対策セミナー]少年非行問題に関するセミナーを開催します,[ 少年非行対策セミナー]少年非行問題に関するセミナーを開催します,,event,official_event,hiroshima_events,2595,https://www.city.hiroshima.lg.jp/soshiki/84/410329.html,少年の非行問題などに関心のある方を対象に、少年非行対策セミナーを開催します！ 児童相談所の立場から、少年非行の実態や背景にある問題を提起していただき、今後、社会全体でどのように取り組んでいくべきか、講演いただきます。 お気軽に申し込みください！,子ども、講演・講座・セミナー、その他,JMSアステールプラザ 中ホール,,,2025/2/22,2025/2/22,無料,[ 少年非行対策セミナー]少年非行問題に関するセミナーを開催します / JMSアステールプラザ 中ホール / 2025/2/22 / 子ども、講演・講座・セミナー、その他 / 少年の非行問題などに関心のある方を対象に、少年非行対策セミナーを開催します！ 児童相談所の立場から、少年非行の実態や背景にある問題を提起していただき、今後、社会全体でどのように取り組んでいくべきか、講演いただきます。 お気軽に申し込みください！,0.78,accepted_time_sensitive,true,"Hiroshima official event; time-sensitive, discount or exclude if expired"
official-hiroshima-event-3018,jp-hiroshima,히로시마,JP,令和8年広島市二十歳を祝うつどいの開催予定について,令和8年広島市二十歳を祝うつどいの開催予定について,,event,official_event,hiroshima_events,3018,https://www.city.hiroshima.lg.jp/soshiki/84/376913.html,,,,,,2026/1/12,2026/1/12,無料,令和8年広島市二十歳を祝うつどいの開催予定について / 2026/1/12,0.78,accepted_time_sensitive,true,"Hiroshima official event; time-sensitive, discount or exclude if expired"
official-hiroshima-event-3892,jp-hiroshima,히로시마,JP,企画展「実は広島3―日用品編―」（広島市郷土資料館）,企画展「実は広島3―日用品編―」（広島市郷土資料館）,,event,official_event,hiroshima_events,3892,https://www.city.hiroshima.lg.jp/soshiki/46/405690.html,全国的に広く知られている企業や製品の中には、広島発祥であったり、広島が大きなシェアを持っているなど、案外知られていないケースがあり、本展では日用品の事例を紹介します。 ※展示期間中の日曜日14時から展示ガイドを行います。,イベント、子ども、文化・芸術,広島市南区宇品御幸二丁目6-20 広島市郷土資料館 2階企画展示室,,,2024/12/7,2025/2/24,有料,企画展「実は広島3―日用品編―」（広島市郷土資料館） / 広島市南区宇品御幸二丁目6-20 広島市郷土資料館 2階企画展示室 / 2024/12/7 / イベント、子ども、文化・芸術 / 全国的に広く知られている企業や製品の中には、広島発祥であったり、広島が大きなシェアを持っているなど、案外知られていないケースがあり、本展では日用品の事例を紹介します。 ※展示期間中の日曜日14時から展示ガイドを行います。,0.78,accepted_time_sensitive,true,"Hiroshima official event; time-sensitive, discount or exclude if expired"
official-hiroshima-event-4008,jp-hiroshima,히로시마,JP,「第34回市民文芸」に掲載する作品を募集しています,「第34回市民文芸」に掲載する作品を募集しています,,event,official_event,hiroshima_events,4008,https://www.city.hiroshima.lg.jp/soshiki/46/309328.html,市民の皆さんの創意あふれる文芸作品を募集します。 優秀作品は、2025年12月発行予定の市民文芸作品集「文芸ひろしま」第34号に掲載します。 応募先＝広島市文化財団「市民文芸作品募集」係まで。 詳しくは、広島市文化財団のHPでご確認ください。,,,,,2024/11/5,2025/2/28,無料,「第34回市民文芸」に掲載する作品を募集しています / 2024/11/5 / 市民の皆さんの創意あふれる文芸作品を募集します。 優秀作品は、2025年12月発行予定の市民文芸作品集「文芸ひろしま」第34号に掲載します。 応募先＝広島市文化財団「市民文芸作品募集」係まで。 詳しくは、広島市文化財団のHPでご確認ください。,0.78,accepted_time_sensitive,true,"Hiroshima official event; time-sensitive, discount or exclude if expired"
official-hiroshima-event-4127,jp-hiroshima,히로시마,JP,【企画展】「広島城下のくらし拝見」（広島城）,【企画展】「広島城下のくらし拝見」（広島城）,,event,official_event,hiroshima_events,4127,https://www.city.hiroshima.lg.jp/soshiki/46/404608.html,江戸時代、広島城下は西日本有数の規模を誇っていましたが、城下の人々の暮らしぶりについてはあまり知られていません。本企画展では絵図・絵画・出土品などからその様子を紹介します。 期間中、学芸員による展示ガイドあり。 日曜日の(1)11時00分～(2)14時00分～（約15分）,イベント、文化・芸術,広島市中区基町21-1 広島城天守閣第四層企画展示室,,,2024/12/14,2025/4/20,無料,【企画展】「広島城下のくらし拝見」（広島城） / 広島市中区基町21-1 広島城天守閣第四層企画展示室 / 2024/12/14 / イベント、文化・芸術 / 江戸時代、広島城下は西日本有数の規模を誇っていましたが、城下の人々の暮らしぶりについてはあまり知られていません。本企画展では絵図・絵画・出土品などからその様子を紹介します。 期間中、学芸員による展示ガイドあり。 日曜日の(1)11時00分～(2)14時00分～（約15分）,0.78,accepted_time_sensitive,true,"Hiroshima official event; time-sensitive, discount or exclude if expired"
official-hiroshima-event-4474,jp-hiroshima,히로시마,JP,成人歯科相談日,成人歯科相談日,,event,official_event,hiroshima_events,4474,https://www.city.hiroshima.lg.jp/soshiki/352/287696.html,20歳以上の方を対象とし、歯科健診やブラッシング指導を行う。,イベント、健康・保健,安佐南区総合福祉センター,,,2025/3/12,2025/3/12,無料,成人歯科相談日 / 安佐南区総合福祉センター / 2025/3/12 / イベント、健康・保健 / 20歳以上の方を対象とし、歯科健診やブラッシング指導を行う。,0.78,accepted_time_sensitive,true,"Hiroshima official event; time-sensitive, discount or exclude if expired"
official-hiroshima-event-8669,jp-hiroshima,히로시마,JP,佐伯区食育講座（0歳児の保護者向け）,佐伯区食育講座（0歳児の保護者向け）,,event,official_event,hiroshima_events,8669,https://www.city.hiroshima.lg.jp/site/saekiku/385973.html,大人の食事の調理実演・試食、取り分け離乳食レシピの紹介,イベント、子ども、講演・講座・セミナー、健康・保健,佐伯区役所別館,,,2025/2/27,2025/2/27,有料,佐伯区食育講座（0歳児の保護者向け） / 佐伯区役所別館 / 2025/2/27 / イベント、子ども、講演・講座・セミナー、健康・保健 / 大人の食事の調理実演・試食、取り分け離乳食レシピの紹介,0.78,accepted_time_sensitive,true,"Hiroshima official event; time-sensitive, discount or exclude if expired"
official-hiroshima-event-7,jp-hiroshima,히로시마,JP,カメルーン関係者と似島小・中学生とのバウムクーヘン交流会を開催します,カメルーン関係者と似島小・中学生とのバウムクーヘン交流会を開催します,,event,official_event,hiroshima_events,7,https://www.city.hiroshima.lg.jp/houdou/houdou/418283.html,,子ども、平和,,,,2025/2/21,2025/2/21,無料,カメルーン関係者と似島小・中学生とのバウムクーヘン交流会を開催します / 2025/2/21 / 子ども、平和,0.78,accepted_time_sensitive,true,"Hiroshima official event; time-sensitive, discount or exclude if expired"
official-hiroshima-event-18,jp-hiroshima,히로시마,JP,3月4日は「バウムクーヘンの日」～大切なあの人に贈る、とっておきのバウムクーヘン～ イベントを開催します,3月4日は「バウムクーヘンの日」～大切なあの人に贈る、とっておきのバウムクーヘン～ イベントを開催します,,event,official_event,hiroshima_events,18,https://www.city.hiroshima.lg.jp/houdou/houdou/417281.html,3月4日「バウムクーヘンの日」を大切な人にバウムクーヘンを贈る日と位置付け、日本におけるバウムクーヘンの発祥の地である広島から世界への贈り物として、大切な人と分かち合う平和な時間を過ごす文化を世界中に広めていくための取組の第一弾として、広島バウムクーヘン振興協議会との共催により、小学生（1～6年生）及びその保護者を対象としたイベントを実施します！,イベント、平和,紙屋町シャレオ西通り「紙屋町スウィング」,,,2025/2/22,2025/2/22,無料,3月4日は「バウムクーヘンの日」～大切なあの人に贈る、とっておきのバウムクーヘン～ イベントを開催します / 紙屋町シャレオ西通り「紙屋町スウィング」 / 2025/2/22 / イベント、平和 / 3月4日「バウムクーヘンの日」を大切な人にバウムクーヘンを贈る日と位置付け、日本におけるバウムクーヘンの発祥の地である広島から世界への贈り物として、大切な人と分かち合う平和な時間を過ごす文化を世界中に広めていくための取組の第一弾として、広島バウムクーヘン振興協議会との共催により、小学生（1～6年生）及びその保護者を対象,0.78,accepted_time_sensitive,true,"Hiroshima official event; time-sensitive, discount or exclude if expired"
official-hiroshima-event-89,jp-hiroshima,히로시마,JP,男女共同参画セミナーの開催,男女共同参画セミナーの開催,,event,official_event,hiroshima_events,89,https://www.city.hiroshima.lg.jp/houdou/houdou/201809.html,第1部 講演 ・テーマ：セクシュアル・マイノリティの選択～家族の現状 ・講 師：広島修道大学人文学部教授 河口 和也氏 第2部 対談 ・同性のカップルを迎え、講師の河口さんとお二人の家族の選択について対談します。,講演・講座・セミナー,ＪＭＳアステールプラザ4階 大会議室Ａ・Ｂ,,,2025/2/22,2025/2/22,無料,男女共同参画セミナーの開催 / ＪＭＳアステールプラザ4階 大会議室Ａ・Ｂ / 2025/2/22 / 講演・講座・セミナー / 第1部 講演 ・テーマ：セクシュアル・マイノリティの選択～家族の現状 ・講 師：広島修道大学人文学部教授 河口 和也氏 第2部 対談 ・同性のカップルを迎え、講師の河口さんとお二人の家族の選択について対談します。,0.78,accepted_time_sensitive,true,"Hiroshima official event; time-sensitive, discount or exclude if expired"
