anchor_id,city_id,city_name,country_code,anchor_name,anchor_name_local,anchor_name_en,anchor_type,official_source_type,source_dataset,source_record_id,source_url,description,category,address,lat,lng,start_date,end_date,price_text,evidence_text,confidence,review_status,match_ready,notes
official-fukuoka-yatai-cluster,jp-fukuoka,후쿠오카,JP,후쿠오카 야타이,福岡市 屋台,Fukuoka Yatai,place_cluster,official_yatai_cluster,fukuoka_yatai_curated,cluster,https://data.bodik.jp/dataset/401307_yataiopendata,福岡市 official yatai inventory with 107 deduplicated stalls.,야타이/포장마차,福岡県福岡市,,,,,,福岡市 official yatai dataset / 107 stalls / deduplicated by 屋台ID,0.98,accepted,true,Place-based aggregate anchor for Fukuoka yatai area/stall network; product format such as tour is not used as the analysis unit.
official-fukuoka-yatai-122472,jp-fukuoka,후쿠오카,JP,寅政,寅政,Toramasa,food_place,official_yatai,fukuoka_yatai_curated,122472,https://yokanavi.com/yatai/122472/,香椎の屋台ならココ！一度出向けば、料理と大将にハマる事間違いなし！,ラーメン/焼きラーメン/焼き鳥/おでん/餃子,福岡県福岡市東区千早5-9,33.6555599,130.4402527,,,3000,寅政 / ラーメン/焼きラーメン/焼き鳥/おでん/餃子 / その他 / 香椎の屋台ならココ！一度出向けば、料理と大将にハマる事間違いなし！,0.95,accepted,true,Fukuoka official yatai dataset; deduplicated by 屋台ID
official-fukuoka-yatai-122473,jp-fukuoka,후쿠오카,JP,おけい,おけい,Okei,food_place,official_yatai,fukuoka_yatai_curated,122473,https://yokanavi.com/yatai/122473/,オーソドックスな料理をさりげなくがモットー,ラーメン/焼き鳥/おでん,福岡県福岡市博多区中洲5,33.5948713,130.4041006,,,3000,おけい / ラーメン/焼き鳥/おでん / 中洲 / オーソドックスな料理をさりげなくがモットー,0.95,accepted,true,Fukuoka official yatai dataset; deduplicated by 屋台ID
official-fukuoka-yatai-122474,jp-fukuoka,후쿠오카,JP,小島商店,小島商店,Kojima shoten,food_place,official_yatai,fukuoka_yatai_curated,122474,https://yokanavi.com/yatai/122474/,小島商店は、接客、丁寧な調理、屋台の雰囲気を大事にする屋台です。,ラーメン/焼きラーメン/おでん,福岡県福岡市博多区中洲1-8（清流公園内）,33.5903239,130.4083572,,,3000,小島商店 / ラーメン/焼きラーメン/おでん / 中洲 / 小島商店は、接客、丁寧な調理、屋台の雰囲気を大事にする屋台です。,0.95,accepted,true,Fukuoka official yatai dataset; deduplicated by 屋台ID
official-fukuoka-yatai-122475,jp-fukuoka,후쿠오카,JP,伸龍,伸龍,Shinryu,food_place,official_yatai,fukuoka_yatai_curated,122475,https://yokanavi.com/yatai/122475/,中洲で30年以上。親子で仲良く元気に営業しています。,ラーメン/焼きラーメン/焼き鳥/おでん/餃子,福岡県福岡市博多区中洲1-8（清流公園内）,33.5904483,130.4081805,,,2000,伸龍 / ラーメン/焼きラーメン/焼き鳥/おでん/餃子 / 中洲 / 中洲で30年以上。親子で仲良く元気に営業しています。,0.95,accepted,true,Fukuoka official yatai dataset; deduplicated by 屋台ID
official-fukuoka-yatai-122476,jp-fukuoka,후쿠오카,JP,武ちゃん,武ちゃん,Takechan,food_place,official_yatai,fukuoka_yatai_curated,122476,https://yokanavi.com/yatai/122476/,餃子屋で修業した大将が作る絶品餃子を是非ご賞味あれ！,餃子,福岡県福岡市博多区中洲1-8（清流公園内）,33.5901946,130.408607,,,1500,武ちゃん / 餃子 / 中洲 / 餃子屋で修業した大将が作る絶品餃子を是非ご賞味あれ！,0.95,accepted,true,Fukuoka official yatai dataset; deduplicated by 屋台ID
official-fukuoka-yatai-122477,jp-fukuoka,후쿠오카,JP,呑龍,呑龍,Donryu,food_place,official_yatai,fukuoka_yatai_curated,122477,https://yokanavi.com/yatai/122477/,お茶目な大将と優しい女将さんのノスタルジックな正統派屋台,ラーメン/焼き鳥/おでん,福岡県福岡市博多区中洲1-8（清流公園内）,33.5900745,130.4087262,,,2500,呑龍 / ラーメン/焼き鳥/おでん / 中洲 / お茶目な大将と優しい女将さんのノスタルジックな正統派屋台,0.95,accepted,true,Fukuoka official yatai dataset; deduplicated by 屋台ID
official-fukuoka-yatai-122478,jp-fukuoka,후쿠오카,JP,ひでちゃん,ひでちゃん,Hidechan,food_place,official_yatai,fukuoka_yatai_curated,122478,https://yokanavi.com/yatai/122478/,博多の夜は屋台の明かりから……,ラーメン/焼きラーメン/焼き鳥/餃子,福岡県福岡市博多区中洲1-8（清流公園内）,33.590221,130.4085471,,,1500,ひでちゃん / ラーメン/焼きラーメン/焼き鳥/餃子 / 中洲 / 博多の夜は屋台の明かりから……,0.95,accepted,true,Fukuoka official yatai dataset; deduplicated by 屋台ID
official-fukuoka-yatai-122480,jp-fukuoka,후쿠오카,JP,丸十,丸十,Marujyu,food_place,official_yatai,fukuoka_yatai_curated,122480,https://yokanavi.com/yatai/122480/,エネルギッシュな従業員がおいしさを倍増させてくれる,ラーメン/焼きラーメン/焼き鳥/おでん/餃子,福岡県福岡市博多区中洲1-8（清流公園内）,33.5902508,130.4084427,,,2500,丸十 / ラーメン/焼きラーメン/焼き鳥/おでん/餃子 / 中洲 / エネルギッシュな従業員がおいしさを倍増させてくれる,0.95,accepted,true,Fukuoka official yatai dataset; deduplicated by 屋台ID
official-fukuoka-yatai-122481,jp-fukuoka,후쿠오카,JP,峰ちゃん,峰ちゃん,Minechan,food_place,official_yatai,fukuoka_yatai_curated,122481,https://yokanavi.com/yatai/122481/,中洲を見ながら飲む酒は絶品！,焼き鳥/おでん/その他,福岡県福岡市博多区中洲1-8（清流公園内）,33.5901751,130.4086295,,,3000,峰ちゃん / 焼き鳥/おでん/その他 / 中洲 / 中洲を見ながら飲む酒は絶品！,0.95,accepted,true,Fukuoka official yatai dataset; deduplicated by 屋台ID
official-fukuoka-yatai-122483,jp-fukuoka,후쿠오카,JP,やまちゃん,やまちゃん,Yamachan,food_place,official_yatai,fukuoka_yatai_curated,122483,https://yokanavi.com/yatai/122483/,威勢のいい声につられてつい暖簾をくぐりたくなる屋台,ラーメン/焼きラーメン/焼き鳥/おでん/餃子/その他,福岡県福岡市博多区中洲1,33.5903136,130.4084119,,,2000,やまちゃん / ラーメン/焼きラーメン/焼き鳥/おでん/餃子/その他 / 中洲 / 威勢のいい声につられてつい暖簾をくぐりたくなる屋台,0.95,accepted,true,Fukuoka official yatai dataset; deduplicated by 屋台ID
official-fukuoka-yatai-122484,jp-fukuoka,후쿠오카,JP,笑平,笑平,Shohei,food_place,official_yatai,fukuoka_yatai_curated,122484,https://yokanavi.com/yatai/122484/,心熱い大将のこだわりと、お客さんへの愛情を感じる屋台,ラーメン/焼きラーメン/焼き鳥/おでん/餃子/中華料理/韓国料理,福岡県福岡市博多区祇園町1-30,33.5905814,130.413007,,,2000,笑平 / ラーメン/焼きラーメン/焼き鳥/おでん/餃子/中華料理/韓国料理 / 中洲 / 心熱い大将のこだわりと、お客さんへの愛情を感じる屋台,0.95,accepted,true,Fukuoka official yatai dataset; deduplicated by 屋台ID
official-fukuoka-yatai-122485,jp-fukuoka,후쿠오카,JP,番笠,番笠,Bangasa,food_place,official_yatai,fukuoka_yatai_curated,122485,https://yokanavi.com/yatai/122485/,大大将と若大将親子二代の和気あいあいとした屋台,ラーメン/焼き鳥/おでん,福岡県福岡市博多区川端町3,33.5920499,130.4103559,,,2000,番笠 / ラーメン/焼き鳥/おでん / 中洲 / 大大将と若大将親子二代の和気あいあいとした屋台,0.95,accepted,true,Fukuoka official yatai dataset; deduplicated by 屋台ID
official-fukuoka-yatai-122486,jp-fukuoka,후쿠오카,JP,ぴょん吉,ぴょん吉,Pyonkichi,food_place,official_yatai,fukuoka_yatai_curated,122486,https://yokanavi.com/yatai/122514/,鴛夫婦ふたりでつくってきた暖簾が温かさを増す屋台,ラーメン/焼き鳥/おでん,福岡県福岡市博多区祇園町1-30,33.5883368,130.4011849,,,3000,ぴょん吉 / ラーメン/焼き鳥/おでん / 中洲 / 鴛夫婦ふたりでつくってきた暖簾が温かさを増す屋台,0.95,accepted,true,Fukuoka official yatai dataset; deduplicated by 屋台ID
official-fukuoka-yatai-122487,jp-fukuoka,후쿠오카,JP,KENZO,KENZO,KENZO,food_place,official_yatai,fukuoka_yatai_curated,122487,https://yokanavi.com/yatai/122487/,若い大将の軽快なトークで酒がすすむぞ！,ラーメン/焼きラーメン/焼き鳥/おでん,福岡県福岡市博多区中洲5-6,33.5948564,130.4040861,,,3000,KENZO / ラーメン/焼きラーメン/焼き鳥/おでん / 中洲 / 若い大将の軽快なトークで酒がすすむぞ！,0.95,accepted,true,Fukuoka official yatai dataset; deduplicated by 屋台ID
official-fukuoka-yatai-122489,jp-fukuoka,후쿠오카,JP,とん吉,とん吉,Tonkichi,food_place,official_yatai,fukuoka_yatai_curated,122489,https://yokanavi.com/yatai/122489/,女将さんが温かく出迎えてくれます,ラーメン/焼きラーメン/天ぷら/焼き鳥/おでん,福岡県福岡市博多区中洲中島町1,33.5948478,130.4033336,,,2000,とん吉 / ラーメン/焼きラーメン/天ぷら/焼き鳥/おでん / 中洲 / 女将さんが温かく出迎えてくれます,0.95,accepted,true,Fukuoka official yatai dataset; deduplicated by 屋台ID
official-fukuoka-yatai-122490,jp-fukuoka,후쿠오카,JP,風来けん坊,風来けん坊,Furaikenbo,food_place,official_yatai,fukuoka_yatai_curated,122490,https://yokanavi.com/yatai/122490/,陽気なママを囲むように並ぶ席で盛り上がる屋台,ラーメン/焼きラーメン/焼き鳥/おでん,福岡県福岡市博多区中洲5-5,33.5947965,130.4040158,,,3000,風来けん坊 / ラーメン/焼きラーメン/焼き鳥/おでん / 中洲 / 陽気なママを囲むように並ぶ席で盛り上がる屋台,0.95,accepted,true,Fukuoka official yatai dataset; deduplicated by 屋台ID
official-fukuoka-yatai-122493,jp-fukuoka,후쿠오카,JP,宗,宗,Mune,food_place,official_yatai,fukuoka_yatai_curated,122493,https://yokanavi.com/yatai/122493/,大将は大の野球ファン！！,ラーメン/焼きラーメン/おでん/餃子/中華料理,福岡県福岡市中央区渡辺通4,33.5875734,130.4012111,,,2000,宗 / ラーメン/焼きラーメン/おでん/餃子/中華料理 / 天神 / 大将は大の野球ファン！！,0.95,accepted,true,Fukuoka official yatai dataset; deduplicated by 屋台ID
official-fukuoka-yatai-122494,jp-fukuoka,후쿠오카,JP,ともちゃん,ともちゃん,Tomochan,food_place,official_yatai,fukuoka_yatai_curated,122494,https://yokanavi.com/yatai/122494/,ラーメン、焼き鳥、おでん。料理一つ一つにこだわりのある屋台。,ラーメン/焼きラーメン/焼き鳥/おでん/その他,福岡県福岡市中央区天神1-14,33.592901,130.4008904,,,4000,ともちゃん / ラーメン/焼きラーメン/焼き鳥/おでん/その他 / 天神 / ラーメン、焼き鳥、おでん。料理一つ一つにこだわりのある屋台。,0.95,accepted,true,Fukuoka official yatai dataset; deduplicated by 屋台ID
official-fukuoka-yatai-122495,jp-fukuoka,후쿠오카,JP,こがちゃん,こがちゃん,Kogachan,food_place,official_yatai,fukuoka_yatai_curated,122495,https://yokanavi.com/yatai/122495/,子供の時分から手伝ってたという若大将と女将の温かさが屋台ににじみ出てほっこり！,ラーメン/焼きラーメン/焼き鳥/おでん/餃子/中華料理,福岡県福岡市中央区渡辺通4-1,33.58547,130.403227,,,3000,こがちゃん / ラーメン/焼きラーメン/焼き鳥/おでん/餃子/中華料理 / 天神 / 子供の時分から手伝ってたという若大将と女将の温かさが屋台ににじみ出てほっこり！,0.95,accepted,true,Fukuoka official yatai dataset; deduplicated by 屋台ID
official-fukuoka-yatai-122496,jp-fukuoka,후쿠오카,JP,屋台けいじ,屋台けいじ,Keiji,food_place,official_yatai,fukuoka_yatai_curated,122496,https://yokanavi.com/yatai/122473/,イケメン店長の作る料理は、男子も女子もみんな夢中,ラーメン/焼きラーメン/焼き鳥/おでん/餃子,福岡県福岡市中央区赤坂1,33.5948713,130.4041006,,,3000,屋台けいじ / ラーメン/焼きラーメン/焼き鳥/おでん/餃子 / その他 / イケメン店長の作る料理は、男子も女子もみんな夢中,0.95,accepted,true,Fukuoka official yatai dataset; deduplicated by 屋台ID
official-fukuoka-yatai-122497,jp-fukuoka,후쿠오카,JP,屋台バー えびちゃん,屋台バー えびちゃん,Ebichan,food_place,official_yatai,fukuoka_yatai_curated,122497,https://yokanavi.com/yatai/122497/,立ち居振る舞いが粋な二代目バーテンダー,おでん/洋食・西洋料理/その他,福岡県福岡市中央区天神4-2-1,33.5932073,130.400775,,,2120,屋台バー えびちゃん / おでん/洋食・西洋料理/その他 / 天神 / 立ち居振る舞いが粋な二代目バーテンダー,0.95,accepted,true,Fukuoka official yatai dataset; deduplicated by 屋台ID
official-fukuoka-yatai-122498,jp-fukuoka,후쿠오카,JP,うまっつら,うまっつら,Umattsura,food_place,official_yatai,fukuoka_yatai_curated,122498,https://yokanavi.com/yatai/122498/,お客様同士の会話も楽しいダンディーなマスターのお店,ラーメン/焼きラーメン/焼き鳥/おでん/洋食・西洋料理/中華料理,福岡県福岡市中央区赤坂1-1,33.585282,130.3912501,,,2000,うまっつら / ラーメン/焼きラーメン/焼き鳥/おでん/洋食・西洋料理/中華料理 / その他 / お客様同士の会話も楽しいダンディーなマスターのお店,0.95,accepted,true,Fukuoka official yatai dataset; deduplicated by 屋台ID
official-fukuoka-yatai-122501,jp-fukuoka,후쿠오카,JP,さよ子,さよ子,Sayoko,food_place,official_yatai,fukuoka_yatai_curated,122501,https://yokanavi.com/yatai/122501/,気さくなお母さんが笑顔でお出迎え！！,焼き鳥/おでん,福岡県福岡市中央区長浜3-14,33.5930667,130.3874582,,,3000,さよ子 / 焼き鳥/おでん / 長浜 / 気さくなお母さんが笑顔でお出迎え！！,0.95,accepted,true,Fukuoka official yatai dataset; deduplicated by 屋台ID
official-fukuoka-yatai-122502,jp-fukuoka,후쿠오카,JP,忠助,忠助,Chusuke,food_place,official_yatai,fukuoka_yatai_curated,122502,https://yokanavi.com/yatai/122502/,優しさと情熱の間にあるような屋台,ラーメン/焼き鳥/おでん/餃子,福岡県福岡市中央区天神4-2-1,33.5930791,130.4005487,,,2000,忠助 / ラーメン/焼き鳥/おでん/餃子 / 天神 / 優しさと情熱の間にあるような屋台,0.95,accepted,true,Fukuoka official yatai dataset; deduplicated by 屋台ID
official-fukuoka-yatai-122503,jp-fukuoka,후쿠오카,JP,あほたれーの,あほたれーの,Ahotare-no,food_place,official_yatai,fukuoka_yatai_curated,122503,https://yokanavi.com/yatai/122503/,仕入れによって変わる新鮮野菜を使ったメニューは要チェック！,ラーメン/焼きラーメン/天ぷら/焼き鳥/おでん/餃子,福岡県福岡市中央区天神1-4-1,33.5884627,130.4010713,,,2000,あほたれーの / ラーメン/焼きラーメン/天ぷら/焼き鳥/おでん/餃子 / 天神 / 仕入れによって変わる新鮮野菜を使ったメニューは要チェック！,0.95,accepted,true,Fukuoka official yatai dataset; deduplicated by 屋台ID
official-fukuoka-yatai-122504,jp-fukuoka,후쿠오카,JP,喜柳,喜柳,Kiryu,food_place,official_yatai,fukuoka_yatai_curated,122504,https://yokanavi.com/yatai/122504/,福岡の屋台で一番メニューが多く、福岡の食材を使ったオリジナルメニューも豊富。,ラーメン/焼きラーメン/おでん/餃子/洋食・西洋料理,福岡県福岡市中央区天神1-4-1,33.5884203,130.4011203,,,2500,喜柳 / ラーメン/焼きラーメン/おでん/餃子/洋食・西洋料理 / 天神 / 福岡の屋台で一番メニューが多く、福岡の食材を使ったオリジナルメニューも豊富。,0.95,accepted,true,Fukuoka official yatai dataset; deduplicated by 屋台ID
official-fukuoka-yatai-122506,jp-fukuoka,후쿠오카,JP,さつまや,さつまや,Satsumaya,food_place,official_yatai,fukuoka_yatai_curated,122506,https://yokanavi.com/yatai/122506/,夫婦でやってるアットホームな屋台！,ラーメン/焼きラーメン/焼き鳥/おでん,福岡県福岡市中央区天神1-6-8,33.5892789,130.4003746,,,2000,さつまや / ラーメン/焼きラーメン/焼き鳥/おでん / 天神 / 夫婦でやってるアットホームな屋台！,0.95,accepted,true,Fukuoka official yatai dataset; deduplicated by 屋台ID
official-fukuoka-yatai-122507,jp-fukuoka,후쿠오카,JP,蜃気楼,蜃気楼,Shinkiro,food_place,official_yatai,fukuoka_yatai_curated,122507,https://yokanavi.com/yatai/122507/,外国人さんが意外に多い屋台、ヨーロッパからアジアまで世界が屋台でつながってます,ラーメン/焼き鳥/おでん,福岡県福岡市中央区渡辺通4,33.5858309,130.4029378,,,1500,蜃気楼 / ラーメン/焼き鳥/おでん / 天神 / 外国人さんが意外に多い屋台、ヨーロッパからアジアまで世界が屋台でつながってます,0.95,accepted,true,Fukuoka official yatai dataset; deduplicated by 屋台ID
official-fukuoka-yatai-122508,jp-fukuoka,후쿠오카,JP,ちょうちん,ちょうちん,Chochin,food_place,official_yatai,fukuoka_yatai_curated,122508,https://yokanavi.com/yatai/122508/,島人の大将が作る沖縄風料理,ラーメン/焼きラーメン/餃子/その他,福岡県福岡市中央区天神1-6-8,33.5893462,130.400364,,,2000,ちょうちん / ラーメン/焼きラーメン/餃子/その他 / 天神 / 島人の大将が作る沖縄風料理,0.95,accepted,true,Fukuoka official yatai dataset; deduplicated by 屋台ID
official-fukuoka-yatai-122509,jp-fukuoka,후쿠오카,JP,なかちゃん,なかちゃん,Nakachan,food_place,official_yatai,fukuoka_yatai_curated,122509,https://yokanavi.com/yatai/122509/,豊富なメニューと屈託のない笑顔で頑張っています。,ラーメン/焼きラーメン/焼き鳥/おでん/餃子/洋食・西洋料理,福岡県福岡市中央区天神2-1-1,33.5890526,130.3999993,,,2500,なかちゃん / ラーメン/焼きラーメン/焼き鳥/おでん/餃子/洋食・西洋料理 / 天神 / 豊富なメニューと屈託のない笑顔で頑張っています。,0.95,accepted,true,Fukuoka official yatai dataset; deduplicated by 屋台ID
official-fukuoka-yatai-122510,jp-fukuoka,후쿠오카,JP,永ちゃん,永ちゃん,Nagachan,food_place,official_yatai,fukuoka_yatai_curated,122510,https://yokanavi.com/yatai/122510/,親子の掛け合いが面白い人気屋台 場所も中心とあって子供連れのお客の常連も,ラーメン/焼きラーメン/天ぷら/焼き鳥/おでん/餃子,福岡県福岡市中央区天神1-6-8,33.5895765,130.4000588,,,2500,永ちゃん / ラーメン/焼きラーメン/天ぷら/焼き鳥/おでん/餃子 / 天神 / 親子の掛け合いが面白い人気屋台 場所も中心とあって子供連れのお客の常連も,0.95,accepted,true,Fukuoka official yatai dataset; deduplicated by 屋台ID
official-fukuoka-yatai-122511,jp-fukuoka,후쿠오카,JP,姫ちゃん,姫ちゃん,Himechan,food_place,official_yatai,fukuoka_yatai_curated,122511,https://yokanavi.com/yatai/122511/,穏やかな大将とイケメン若大将のお店料理の腕は自信あり！,ラーメン/焼き鳥/おでん/餃子/中華料理,福岡県福岡市中央区渡辺通5-24-22,33.5880118,130.4015949,,,1500,姫ちゃん / ラーメン/焼き鳥/おでん/餃子/中華料理 / 天神 / 穏やかな大将とイケメン若大将のお店料理の腕は自信あり！,0.95,accepted,true,Fukuoka official yatai dataset; deduplicated by 屋台ID
official-fukuoka-yatai-122512,jp-fukuoka,후쿠오카,JP,まるよし,まるよし,Maruyoshi,food_place,official_yatai,fukuoka_yatai_curated,122512,https://yokanavi.com/yatai/122512/,やさしい感じのマスターのボキャブラリー豊富なトークもイイ！,ラーメン/焼きラーメン/焼き鳥/おでん/餃子,福岡県福岡市中央区渡辺通5-24-22,33.5880479,130.401669,,,2500,まるよし / ラーメン/焼きラーメン/焼き鳥/おでん/餃子 / 天神 / やさしい感じのマスターのボキャブラリー豊富なトークもイイ！,0.95,accepted,true,Fukuoka official yatai dataset; deduplicated by 屋台ID
official-fukuoka-yatai-122513,jp-fukuoka,후쿠오카,JP,屋台鬼多郎天神店,屋台鬼多郎天神店,Kitaro Tenjinten,food_place,official_yatai,fukuoka_yatai_curated,122513,https://yokanavi.com/yatai/122513/,沖縄風ボーイが笑顔でお出迎え 親近感が湧く屋台で今夜は酔っぱらい！,ラーメン/焼きラーメン/焼き鳥/おでん/餃子/中華料理,福岡県福岡市中央区天神1-4-1,33.5884866,130.4010511,,,2000,屋台鬼多郎天神店 / ラーメン/焼きラーメン/焼き鳥/おでん/餃子/中華料理 / 天神 / 沖縄風ボーイが笑顔でお出迎え 親近感が湧く屋台で今夜は酔っぱらい！,0.95,accepted,true,Fukuoka official yatai dataset; deduplicated by 屋台ID
official-fukuoka-yatai-122514,jp-fukuoka,후쿠오카,JP,屋台屋ぴょんきち,屋台屋ぴょんきち,Yataiya Pyonkichi,food_place,official_yatai,fukuoka_yatai_curated,122514,https://yokanavi.com/yatai/122514/,若いスタッフのエネルギーではちきれんばかりのパワーを感じる,ラーメン/焼きラーメン/焼き鳥/おでん/餃子/韓国料理,福岡県福岡市中央区天神1-4-1,33.5883368,130.4011849,,,2000,屋台屋ぴょんきち / ラーメン/焼きラーメン/焼き鳥/おでん/餃子/韓国料理 / 天神 / 若いスタッフのエネルギーではちきれんばかりのパワーを感じる,0.95,accepted,true,Fukuoka official yatai dataset; deduplicated by 屋台ID
official-fukuoka-yatai-122515,jp-fukuoka,후쿠오카,JP,雲仙,雲仙,Unzen,food_place,official_yatai,fukuoka_yatai_curated,122515,https://yokanavi.com/yatai/122515/,人気のプラモデラーのマスター 著名人にも愛される屋台です,ラーメン/焼きラーメン/焼き鳥/おでん/餃子/洋食・西洋料理,福岡県福岡市中央区天神2-13-1,33.5919869,130.3975098,,,2500,雲仙 / ラーメン/焼きラーメン/焼き鳥/おでん/餃子/洋食・西洋料理 / 天神 / 人気のプラモデラーのマスター 著名人にも愛される屋台です,0.95,accepted,true,Fukuoka official yatai dataset; deduplicated by 屋台ID
official-fukuoka-yatai-122516,jp-fukuoka,후쿠오카,JP,河ちゃん,河ちゃん,Kawachan,food_place,official_yatai,fukuoka_yatai_curated,122516,https://yokanavi.com/yatai/122516/,若い大将には若い仲間が集う、そんな屋台がココ！,ラーメン/焼き鳥/餃子,福岡県福岡市中央区天神2,33.5916016,130.3985166,,,2500,河ちゃん / ラーメン/焼き鳥/餃子 / 天神 / 若い大将には若い仲間が集う、そんな屋台がココ！,0.95,accepted,true,Fukuoka official yatai dataset; deduplicated by 屋台ID
official-fukuoka-yatai-122517,jp-fukuoka,후쿠오카,JP,天一,天一,Tenichi,food_place,official_yatai,fukuoka_yatai_curated,122517,https://yokanavi.com/yatai/122517/,1962年創業の福岡でも歴史の長い人気の屋台 ほとんど常連さんで埋まる席なので空いてたら是非,天ぷら/焼き鳥/おでん/その他,福岡県福岡市中央区天神1-12,33.5917342,130.3990517,,,2500,天一 / 天ぷら/焼き鳥/おでん/その他 / 天神 / 1962年創業の福岡でも歴史の長い人気の屋台 ほとんど常連さんで埋まる席なので空いてたら是非,0.95,accepted,true,Fukuoka official yatai dataset; deduplicated by 屋台ID
official-fukuoka-yatai-122519,jp-fukuoka,후쿠오카,JP,てっちゃん,てっちゃん,Tetchan,food_place,official_yatai,fukuoka_yatai_curated,122519,https://yokanavi.com/yatai/122519/,エネルギッシュなトークで観光客にも常連にも大人気店です。,ラーメン/焼きラーメン/焼き鳥/おでん/餃子/洋食・西洋料理/中華料理,福岡県福岡市中央区天神2,33.5883803,130.401157,,,1500,てっちゃん / ラーメン/焼きラーメン/焼き鳥/おでん/餃子/洋食・西洋料理/中華料理 / 天神 / エネルギッシュなトークで観光客にも常連にも大人気店です。,0.95,accepted,true,Fukuoka official yatai dataset; deduplicated by 屋台ID
official-fukuoka-yatai-122520,jp-fukuoka,후쿠오카,JP,那須乃大八,那須乃大八,Nasunodaihachi,food_place,official_yatai,fukuoka_yatai_curated,122520,https://yokanavi.com/yatai/122520/,楽しい会話と美味しいお酒 観光客も多く訪れる屋台,ラーメン/焼き鳥/おでん,福岡県福岡市中央区天神2-12-1,33.5917668,130.3984787,,,2500,那須乃大八 / ラーメン/焼き鳥/おでん / 天神 / 楽しい会話と美味しいお酒 観光客も多く訪れる屋台,0.95,accepted,true,Fukuoka official yatai dataset; deduplicated by 屋台ID
official-fukuoka-yatai-122521,jp-fukuoka,후쿠오카,JP,なんしようと屋,なんしようと屋,Nanshiyotoya,food_place,official_yatai,fukuoka_yatai_curated,122521,https://yokanavi.com/yatai/122521/,夫婦で切り盛りしている、昔ながらのオーソドックスな屋台です。,ラーメン/焼きラーメン/焼き鳥/おでん,福岡県福岡市中央区天神1-12-7（福岡ダイヤモンドビル前）,33.5916529,130.3990852,,,2000,なんしようと屋 / ラーメン/焼きラーメン/焼き鳥/おでん / 天神 / 夫婦で切り盛りしている、昔ながらのオーソドックスな屋台です。,0.95,accepted,true,Fukuoka official yatai dataset; deduplicated by 屋台ID
official-fukuoka-yatai-122522,jp-fukuoka,후쿠오카,JP,白龍,白龍,Hakuryu,food_place,official_yatai,fukuoka_yatai_curated,122522,https://yokanavi.com/yatai/122522/,創業昭和32年の福岡でも3本の指に入る古参の屋台！伝統の味を親子三代に渡って守り抜いています。,ラーメン/焼き鳥/おでん/餃子,福岡県福岡市中央区天神1-12,33.5920248,130.3988355,,,1500,白龍 / ラーメン/焼き鳥/おでん/餃子 / 天神 / 創業昭和32年の福岡でも3本の指に入る古参の屋台！伝統の味を親子三代に渡って守り抜いています。,0.95,accepted,true,Fukuoka official yatai dataset; deduplicated by 屋台ID
official-fukuoka-yatai-122524,jp-fukuoka,후쿠오카,JP,まみちゃん,まみちゃん,Mamichan,food_place,official_yatai,fukuoka_yatai_curated,122524,https://yokanavi.com/yatai/122524/,また行きたくなる屋台,ラーメン/焼きラーメン/おでん/餃子/中華料理,福岡県福岡市中央区天神2-13-1,33.5920555,130.3977427,,,2500,まみちゃん / ラーメン/焼きラーメン/おでん/餃子/中華料理 / 天神 / また行きたくなる屋台,0.95,accepted,true,Fukuoka official yatai dataset; deduplicated by 屋台ID
official-fukuoka-yatai-122525,jp-fukuoka,후쿠오카,JP,玄海,玄海,Genkai,food_place,official_yatai,fukuoka_yatai_curated,122525,https://yokanavi.com/yatai/122525/,現存する屋台の中でもとびきり古い！,天ぷら,福岡県福岡市中央区天神2-14-13,33.5912149,130.3959427,,,2500,玄海 / 天ぷら / 天神 / 現存する屋台の中でもとびきり古い！,0.95,accepted,true,Fukuoka official yatai dataset; deduplicated by 屋台ID
official-fukuoka-yatai-122526,jp-fukuoka,후쿠오카,JP,小金ちゃん,小金ちゃん,Kokinchan,food_place,official_yatai,fukuoka_yatai_curated,122526,https://yokanavi.com/yatai/122526/,1968年創業。焼きラーメンの元祖として親しまれています。,ラーメン/焼きラーメン/焼き鳥/おでん/餃子/中華料理,福岡県福岡市中央区天神2-14-13,33.5911817,130.3957015,,,1500,小金ちゃん / ラーメン/焼きラーメン/焼き鳥/おでん/餃子/中華料理 / 天神 / 1968年創業。焼きラーメンの元祖として親しまれています。,0.95,accepted,true,Fukuoka official yatai dataset; deduplicated by 屋台ID
official-fukuoka-yatai-122527,jp-fukuoka,후쿠오카,JP,対州軒,対州軒,Taishuken,food_place,official_yatai,fukuoka_yatai_curated,122527,https://yokanavi.com/yatai/122527/,博多屋台の中でもとびきり若い大将と女将（母）が切り盛りする屋台,ラーメン/焼きラーメン/天ぷら/おでん,福岡県福岡市中央区天神2-14-13,33.5910687,130.3957014,,,2500,対州軒 / ラーメン/焼きラーメン/天ぷら/おでん / 天神 / 博多屋台の中でもとびきり若い大将と女将（母）が切り盛りする屋台,0.95,accepted,true,Fukuoka official yatai dataset; deduplicated by 屋台ID
official-fukuoka-yatai-122528,jp-fukuoka,후쿠오카,JP,たかちゃん,たかちゃん,Takachan,food_place,official_yatai,fukuoka_yatai_curated,122528,https://yokanavi.com/yatai/122528/,親子でしっかり切り盛り会話も楽しい屋台,ラーメン/焼きラーメン/焼き鳥/おでん/中華料理,福岡県福岡市中央区天神2-14-13,33.591214,130.3958602,,,2500,たかちゃん / ラーメン/焼きラーメン/焼き鳥/おでん/中華料理 / 天神 / 親子でしっかり切り盛り会話も楽しい屋台,0.95,accepted,true,Fukuoka official yatai dataset; deduplicated by 屋台ID
official-fukuoka-yatai-122529,jp-fukuoka,후쿠오카,JP,八方亭,八方亭,Happotei,food_place,official_yatai,fukuoka_yatai_curated,122529,https://yokanavi.com/yatai/122529/,ひょうきんで優しいマスターが目印の屋台,ラーメン/焼きラーメン/焼き鳥/おでん,福岡県福岡市中央区天神2-14-13,33.5912702,130.3961258,,,2000,八方亭 / ラーメン/焼きラーメン/焼き鳥/おでん / 天神 / ひょうきんで優しいマスターが目印の屋台,0.95,accepted,true,Fukuoka official yatai dataset; deduplicated by 屋台ID
official-fukuoka-yatai-122530,jp-fukuoka,후쿠오카,JP,華,華,Hana,food_place,official_yatai,fukuoka_yatai_curated,122530,https://yokanavi.com/yatai/122530/,バリバリの博多弁が飛び交う店内で博多気分満喫,ラーメン/焼きラーメン/天ぷら/焼き鳥/おでん/餃子,福岡県福岡市中央区天神2-14-13,33.5909981,130.3957306,,,1500,華 / ラーメン/焼きラーメン/天ぷら/焼き鳥/おでん/餃子 / 天神 / バリバリの博多弁が飛び交う店内で博多気分満喫,0.95,accepted,true,Fukuoka official yatai dataset; deduplicated by 屋台ID
official-fukuoka-yatai-122532,jp-fukuoka,후쿠오카,JP,与作,与作,Yosaku,food_place,official_yatai,fukuoka_yatai_curated,122532,https://yokanavi.com/yatai/122532/,見た目とのギャップに^^おもしろい大将がお相手,ラーメン/焼きラーメン/焼き鳥/おでん,福岡県福岡市中央区天神2-14-13,33.5911576,130.3956811,,,1500,与作 / ラーメン/焼きラーメン/焼き鳥/おでん / 天神 / 見た目とのギャップに^^おもしろい大将がお相手,0.95,accepted,true,Fukuoka official yatai dataset; deduplicated by 屋台ID
official-fukuoka-yatai-122533,jp-fukuoka,후쿠오카,JP,味府,味府,Ajifu,food_place,official_yatai,fukuoka_yatai_curated,122533,https://yokanavi.com/yatai/122533/,昭和47年創業の老舗屋台おいしい料理とお酒を,ラーメン/焼き鳥/餃子,福岡県福岡市中央区天神2-1-1,33.5882149,130.400613,,,2500,味府 / ラーメン/焼き鳥/餃子 / 天神 / 昭和47年創業の老舗屋台おいしい料理とお酒を,0.95,accepted,true,Fukuoka official yatai dataset; deduplicated by 屋台ID
official-fukuoka-yatai-122534,jp-fukuoka,후쿠오카,JP,満龍,満龍,Manryu,food_place,official_yatai,fukuoka_yatai_curated,122534,https://yokanavi.com/yatai/122534/,当店名物！明太子入り玉子焼きが人気の屋台です！,ラーメン/焼きラーメン/焼き鳥/おでん/餃子/海外の料理,福岡県福岡市中央区天神4-2-1,33.592899,130.4001575,,,2500,満龍 / ラーメン/焼きラーメン/焼き鳥/おでん/餃子/海外の料理 / 天神 / 当店名物！明太子入り玉子焼きが人気の屋台です！,0.95,accepted,true,Fukuoka official yatai dataset; deduplicated by 屋台ID
official-fukuoka-yatai-122535,jp-fukuoka,후쿠오카,JP,鬼多郎,鬼多郎,Kitaro,food_place,official_yatai,fukuoka_yatai_curated,122535,https://yokanavi.com/yatai/122535/,鬼多郎はここから始まった屋台です,ラーメン/焼き鳥/おでん/餃子,福岡県福岡市中央区渡辺通4-6,33.5857368,130.4029881,,,2500,鬼多郎 / ラーメン/焼き鳥/おでん/餃子 / 天神 / 鬼多郎はここから始まった屋台です,0.95,accepted,true,Fukuoka official yatai dataset; deduplicated by 屋台ID
official-fukuoka-yatai-122537,jp-fukuoka,후쿠오카,JP,長浜ラーメンおかもと,長浜ラーメンおかもと,Okamoto,food_place,official_yatai,fukuoka_yatai_curated,122537,https://yokanavi.com/yatai/122537/,芸能人やスポーツ選手にも愛される屋台,ラーメン/焼きラーメン/おでん/中華料理,福岡県福岡市中央区渡辺通4-1,33.5854152,130.4032779,,,2500,長浜ラーメンおかもと / ラーメン/焼きラーメン/おでん/中華料理 / 天神 / 芸能人やスポーツ選手にも愛される屋台,0.95,accepted,true,Fukuoka official yatai dataset; deduplicated by 屋台ID
official-fukuoka-yatai-122538,jp-fukuoka,후쿠오카,JP,大政,大政,Omasa,food_place,official_yatai,fukuoka_yatai_curated,122538,https://yokanavi.com/yatai/122538/,先代の大将もまだ現役でおしゃべりの相手をしてくれます,うどん/天ぷら/焼き鳥/おでん,福岡県福岡市博多区中洲5-4,33.5941031,130.4033345,,,2500,大政 / うどん/天ぷら/焼き鳥/おでん / 中洲 / 先代の大将もまだ現役でおしゃべりの相手をしてくれます,0.95,accepted,true,Fukuoka official yatai dataset; deduplicated by 屋台ID
official-fukuoka-yatai-122539,jp-fukuoka,후쿠오카,JP,飛車浬,飛車浬,Pishari,food_place,official_yatai,fukuoka_yatai_curated,122539,https://yokanavi.com/yatai/122539/,博多に来たらまずは屋台で博多ラーメン駅前の名店は観光客でいつもいっぱい,ラーメン/おでん,福岡県福岡市博多区博多駅東2-5,33.5881799,130.4225307,,,2500,飛車浬 / ラーメン/おでん / その他 / 博多に来たらまずは屋台で博多ラーメン駅前の名店は観光客でいつもいっぱい,0.95,accepted,true,Fukuoka official yatai dataset; deduplicated by 屋台ID
official-fukuoka-yatai-124484,jp-fukuoka,후쿠오카,JP,屋台桜,屋台桜,Yataizakura,food_place,official_yatai,fukuoka_yatai_curated,124484,https://yokanavi.com/yatai/124484/,,ラーメン/焼きラーメン/おでん,福岡県福岡市博多区博多駅東2-5（スターパーキング前）,33.5880943,130.4224283,,,,屋台桜 / ラーメン/焼きラーメン/おでん / その他,0.95,accepted,true,Fukuoka official yatai dataset; deduplicated by 屋台ID
official-fukuoka-yatai-124488,jp-fukuoka,후쿠오카,JP,一平,一平,Ippei,food_place,official_yatai,fukuoka_yatai_curated,124488,https://yokanavi.com/yatai/124488/,"【店主のオススメ！】 天ぷら盛り合わせ 2,000円※金額は2023年12月時点のものです。<iframe src=""https://www.google.com/maps/d/u/1/embed?mid=1BfllgBqeJWXb7hU8F1jVDVjs5dzH184&amp;ehbc=2E312F"" width=""100%"" height=""480""></iframe>",天ぷら/焼き鳥,福岡県福岡市博多区中洲4-1,33.5913596,130.4070801,,,,"一平 / 天ぷら/焼き鳥 / 中洲 / 【店主のオススメ！】 天ぷら盛り合わせ 2,000円※金額は2023年12月時点のものです。<iframe src=""https://www.google.com/maps/d/u/1/embed?mid=1BfllgBqeJWXb7hU8F1jVDVjs5dzH184&amp;ehbc=2E312F"" width=""",0.95,accepted,true,Fukuoka official yatai dataset; deduplicated by 屋台ID
official-fukuoka-yatai-124490,jp-fukuoka,후쿠오카,JP,のんきや,のんきや,Nonkiya,food_place,official_yatai,fukuoka_yatai_curated,124490,https://yokanavi.com/yatai/124490/,"【店主のオススメ！】 ラーメン 550円おでん 150円餃子 450円 ※金額は2023年12月時点のものです。【関連サイト】 ・<a href=""https://tabelog.com/fukuoka/A4001/A400102/40042398/"">食べログ</a> ・<a href=""https://twitter.com/yatai_nonkiya?lang=ja"">twitter（現X）</a><iframe src=""https://www.google.com/maps/d/u/1/embed?mid=1uDdu1I78axm6Bj40UOS2_pM83kDImDg&amp;ehbc=2E312F"" width=""100%"" height=""480""></iframe>",ラーメン/焼き鳥/おでん/餃子/韓国料理,福岡県福岡市博多区中洲5-5（ファミリーマート前）,33.5943748,130.4035802,,,,"のんきや / ラーメン/焼き鳥/おでん/餃子/韓国料理 / 中洲 / 【店主のオススメ！】 ラーメン 550円おでん 150円餃子 450円 ※金額は2023年12月時点のものです。【関連サイト】 ・<a href=""https://tabelog.com/fukuoka/A4001/A400102/40042398/"">食べログ</a> ・<a href=""https://twitte",0.95,accepted,true,Fukuoka official yatai dataset; deduplicated by 屋台ID
official-fukuoka-yatai-124491,jp-fukuoka,후쿠오카,JP,さんゆう,さんゆう,Sanyu,food_place,official_yatai,fukuoka_yatai_curated,124491,https://yokanavi.com/yatai/124491/,"【店主のオススメ！】 焼きラーメン 900円もつ焼き 1,000円おでん 1,100円 ※金額は2023年12月時点のものです。【関連サイト】・<a href=""https://tabelog.com/fukuoka/A4001/A400102/40003443/"">食べログ</a><iframe src=""https://www.google.com/maps/d/u/1/embed?mid=13egqiPpHzDJBT8Sk36uG-PtUzIwNOqg&amp;ehbc=2E312F"" width=""100%"" height=""480""></iframe>",ラーメン/焼きラーメン/焼き鳥/おでん/餃子,福岡県福岡市博多区中洲1-8（清流公園内）,33.5904806,130.4081838,,,,"さんゆう / ラーメン/焼きラーメン/焼き鳥/おでん/餃子 / 中洲 / 【店主のオススメ！】 焼きラーメン 900円もつ焼き 1,000円おでん 1,100円 ※金額は2023年12月時点のものです。【関連サイト】・<a href=""https://tabelog.com/fukuoka/A4001/A400102/40003443/"">食べログ</a><iframe src=""https",0.95,accepted,true,Fukuoka official yatai dataset; deduplicated by 屋台ID
official-fukuoka-yatai-124492,jp-fukuoka,후쿠오카,JP,大ちゃん,大ちゃん,Daichan,food_place,official_yatai,fukuoka_yatai_curated,124492,https://yokanavi.com/yatai/124492/,"【店主のオススメ！】 ラーメン 770円 ※金額は2023年12月時点のものです。【関連サイト】・<a href=""https://tabelog.com/fukuoka/A4001/A400102/40028732/"">食べログ</a><iframe src=""https://www.google.com/maps/d/u/1/embed?mid=1rIys19LoarrRIs3tm2xMTAPBlB0SuN0&amp;ehbc=2E312F"" width=""100%"" height=""480""></iframe>",ラーメン/焼きラーメン/焼き鳥/おでん,福岡県福岡市博多区中洲1-8（清流公園内）,33.5906616,130.4080669,,,,"大ちゃん / ラーメン/焼きラーメン/焼き鳥/おでん / 中洲 / 【店主のオススメ！】 ラーメン 770円 ※金額は2023年12月時点のものです。【関連サイト】・<a href=""https://tabelog.com/fukuoka/A4001/A400102/40028732/"">食べログ</a><iframe src=""https://www.google.com/maps/",0.95,accepted,true,Fukuoka official yatai dataset; deduplicated by 屋台ID
official-fukuoka-yatai-124493,jp-fukuoka,후쿠오카,JP,紀文,紀文,Kibun,food_place,official_yatai,fukuoka_yatai_curated,124493,https://yokanavi.com/yatai/124493/,"【店主のオススメ！】 天ぷら 1,800円おでん 900円※金額は2023年12月時点のものです。【関連サイト】 ・<a href=""https://tabelog.com/fukuoka/A4001/A400101/40052600/"">食べログ</a><iframe src=""https://www.google.com/maps/d/embed?mid=1CanMtiKpwe9Ckm02tLXeOs5iixkOgNI&amp;ehbc=2E312F"" width=""100%"" height=""480""></iframe>",天ぷら/おでん,福岡県福岡市博多区中洲1-8（清流公園内）,33.5905481,130.4080086,,,,"紀文 / 天ぷら/おでん / 中洲 / 【店主のオススメ！】 天ぷら 1,800円おでん 900円※金額は2023年12月時点のものです。【関連サイト】 ・<a href=""https://tabelog.com/fukuoka/A4001/A400101/40052600/"">食べログ</a><iframe src=""https://www.google.",0.95,accepted,true,Fukuoka official yatai dataset; deduplicated by 屋台ID
official-fukuoka-yatai-124494,jp-fukuoka,후쿠오카,JP,司,司,Tsukasa,food_place,official_yatai,fukuoka_yatai_curated,124494,https://yokanavi.com/yatai/124494/,"【店主のオススメ！】 明太子天ぷら 1,000円串盛り合わせ 1,200円明太子肉巻き 700円 ※金額は2023年12月時点のものです。【関連サイト】・<a href=""https://tabelog.com/fukuoka/A4001/A400102/40005719/"">食べログ</a><iframe src=""https://www.google.com/maps/d/embed?mid=10JtO_f_IS3Viap8T4JBWGc5n6BuXb34&amp;ehbc=2E312F"" width=""100%"" height=""480""></iframe>",天ぷら/焼き鳥,福岡県福岡市博多区中洲1-8（清流公園内）,33.5904987,130.4080992,,,,"司 / 天ぷら/焼き鳥 / 中洲 / 【店主のオススメ！】 明太子天ぷら 1,000円串盛り合わせ 1,200円明太子肉巻き 700円 ※金額は2023年12月時点のものです。【関連サイト】・<a href=""https://tabelog.com/fukuoka/A4001/A400102/40005719/"">食べログ</a><iframe src=""",0.95,accepted,true,Fukuoka official yatai dataset; deduplicated by 屋台ID
official-fukuoka-yatai-124495,jp-fukuoka,후쿠오카,JP,たっちゃん,たっちゃん,Tatchan,food_place,official_yatai,fukuoka_yatai_curated,124495,https://yokanavi.com/yatai/124495/,博多名物を取り揃えてます。お気軽にお立ち寄りください。,ラーメン/焼き鳥/おでん,福岡県福岡市博多区中洲1-8（清流公園内）,33.5903829,130.4082876,,,,たっちゃん / ラーメン/焼き鳥/おでん / 中洲 / 博多名物を取り揃えてます。お気軽にお立ち寄りください。,0.95,accepted,true,Fukuoka official yatai dataset; deduplicated by 屋台ID
official-fukuoka-yatai-124498,jp-fukuoka,후쿠오카,JP,省ちゃん,省ちゃん,Shochan,food_place,official_yatai,fukuoka_yatai_curated,124498,https://yokanavi.com/yatai/124498/,"【店主のオススメ！】 ラーメン 700円焼きとり（６本） 1,100円おでん（６個） 1,100円 ※金額は2023年12月時点のものです。【関連サイト】・<a href=""https://www.instagram.com/nakasuyatai_shochan/"">instagram</a> ・<a href=""https://tabelog.com/fukuoka/A4001/A400102/40046260/"">食べログ</a><iframe src=""https://www.google.com/maps/d/u/1/embed?mid=1_A_hF8-wRVhg-aguRj46SUwfhlSS39E&amp;ehbc=2E312F"" width=""100%"" height=""480""></iframe>",ラーメン/焼きラーメン/焼き鳥/おでん,福岡県福岡市博多区中洲1-8（清流公園内）,33.5899953,130.4088376,,,,"省ちゃん / ラーメン/焼きラーメン/焼き鳥/おでん / 中洲 / 【店主のオススメ！】 ラーメン 700円焼きとり（６本） 1,100円おでん（６個） 1,100円 ※金額は2023年12月時点のものです。【関連サイト】・<a href=""https://www.instagram.com/nakasuyatai_shochan/"">instagram</a> ・<a href=""h",0.95,accepted,true,Fukuoka official yatai dataset; deduplicated by 屋台ID
official-fukuoka-yatai-124500,jp-fukuoka,후쿠오카,JP,山幸,山幸,Yamako,food_place,official_yatai,fukuoka_yatai_curated,124500,https://yokanavi.com/yatai/124500/,"【店主のオススメ！】 ナスメン 900円 ※金額は2023年12月時点のものです。【関連サイト】・<a href=""https://www.instagram.com/hakatayatai_yamakou/"">instagram</a> ・<a href=""https://tabelog.com/fukuoka/A4001/A400103/40005968/"">食べログ</a><iframe src=""https://www.google.com/maps/d/u/1/embed?mid=1_GOe6aUbVMGJ-EWsrqUY1_k4FxG-jlw&amp;ehbc=2E312F"" width=""100%"" height=""480""></iframe>",ラーメン/焼きラーメン/焼き鳥/おでん/餃子/洋食・西洋料理,福岡県福岡市博多区中洲1-8（清流公園内）,33.5901018,130.408694,,,,"山幸 / ラーメン/焼きラーメン/焼き鳥/おでん/餃子/洋食・西洋料理 / 中洲 / 【店主のオススメ！】 ナスメン 900円 ※金額は2023年12月時点のものです。【関連サイト】・<a href=""https://www.instagram.com/hakatayatai_yamakou/"">instagram</a> ・<a href=""https://tabelog.com/fukuoka/A4",0.95,accepted,true,Fukuoka official yatai dataset; deduplicated by 屋台ID
official-fukuoka-yatai-124501,jp-fukuoka,후쿠오카,JP,純ちゃん,純ちゃん,Junchan,food_place,official_yatai,fukuoka_yatai_curated,124501,https://yokanavi.com/yatai/124501/,"【店主のオススメ！】 ラーメン 700円※金額は2023年12月時点のものです。【貸切】?８人以下で可能。【関連サイト】 ・<a href=""https://www.instagram.com/yataijunchan/"">instagram</a> ・<a href=""https://tabelog.com/fukuoka/A4001/A400106/40039152/"">食べログ</a><iframe src=""https://www.google.com/maps/d/u/1/embed?mid=1u4Wzed9IvK7K0Oqj-ZZJEuqptNdwhJo&amp;ehbc=2E312F"" width=""100%"" height=""480""></iframe>",ラーメン/焼き鳥/おでん,福岡県福岡市博多区石城町1-1（福岡銀行前）,33.6028154,130.4038121,,,,"純ちゃん / ラーメン/焼き鳥/おでん / その他 / 【店主のオススメ！】 ラーメン 700円※金額は2023年12月時点のものです。【貸切】?８人以下で可能。【関連サイト】 ・<a href=""https://www.instagram.com/yataijunchan/"">instagram</a> ・<a href=""https://tabelog.com/fuku",0.95,accepted,true,Fukuoka official yatai dataset; deduplicated by 屋台ID
official-fukuoka-yatai-124506,jp-fukuoka,후쿠오카,JP,Telas & mico,Telas & mico,Telas & mico,food_place,official_yatai,fukuoka_yatai_curated,124506,https://yokanavi.com/yatai/124506/,お客さんの「Telas&mico」との付き合い方は十人十色。,ラーメン/焼き鳥/洋食・西洋料理/海外の料理,福岡県福岡市中央区渡辺通4-9（天神ロフト前）,33.5871419,130.4017123,,,,Telas & mico / ラーメン/焼き鳥/洋食・西洋料理/海外の料理 / 天神 / お客さんの「Telas&mico」との付き合い方は十人十色。,0.95,accepted,true,Fukuoka official yatai dataset; deduplicated by 屋台ID
official-fukuoka-yatai-124516,jp-fukuoka,후쿠오카,JP,天神のりゅう太くん,天神のりゅう太くん,Tenjin no ryutakun,food_place,official_yatai,fukuoka_yatai_curated,124516,https://yokanavi.com/yatai/124516/,福岡のソウルフードから海鮮まで充実。,ラーメン/焼き鳥/おでん,福岡県福岡市中央区天神1-12-20（日之出天神ビル前）,33.5922629,130.399307,,,,天神のりゅう太くん / ラーメン/焼き鳥/おでん / 天神 / 福岡のソウルフードから海鮮まで充実。,0.95,accepted,true,Fukuoka official yatai dataset; deduplicated by 屋台ID
official-fukuoka-yatai-161391,jp-fukuoka,후쿠오카,JP,博多 赤之助,博多 赤之助,Akanosuke,food_place,official_yatai,fukuoka_yatai_curated,161391,https://yokanavi.com/yatai/161391/,人気雑誌でも度々取り上げられているまだ新しい行列ができる屋台！！,ラーメン/焼きラーメン/焼き鳥,福岡県福岡市博多区中洲1-8（清流公園内）,33.5901065,130.4088498,,,2000,博多 赤之助 / ラーメン/焼きラーメン/焼き鳥 / 中洲 / 人気雑誌でも度々取り上げられているまだ新しい行列ができる屋台！！,0.95,accepted,true,Fukuoka official yatai dataset; deduplicated by 屋台ID
official-fukuoka-yatai-161392,jp-fukuoka,후쿠오카,JP,ひょうたん,ひょうたん,Hyotan,food_place,official_yatai,fukuoka_yatai_curated,161392,https://yokanavi.com/yatai/161392/,揚げたて天婦羅、ぶ厚い牛タンステーキで大人気の屋台です！,天ぷら/その他,福岡県福岡市博多区中洲中島町1,33.5949726,130.4034524,,,3000,ひょうたん / 天ぷら/その他 / 中洲 / 揚げたて天婦羅、ぶ厚い牛タンステーキで大人気の屋台です！,0.95,accepted,true,Fukuoka official yatai dataset; deduplicated by 屋台ID
official-fukuoka-yatai-161393,jp-fukuoka,후쿠오카,JP,KUROチャン,KUROチャン,KUROchan,food_place,official_yatai,fukuoka_yatai_curated,161393,https://yokanavi.com/yatai/161393/,豪快に焼き上げる「地鶏の炭火焼き」は見た目も味もやみつきに。,ラーメン/焼きラーメン/焼き鳥/おでん,福岡県福岡市博多区中洲中島町1,33.595028,130.4035052,,,3000,KUROチャン / ラーメン/焼きラーメン/焼き鳥/おでん / 中洲 / 豪快に焼き上げる「地鶏の炭火焼き」は見た目も味もやみつきに。,0.95,accepted,true,Fukuoka official yatai dataset; deduplicated by 屋台ID
official-fukuoka-yatai-161394,jp-fukuoka,후쿠오카,JP,博多中洲屋台 交龍,博多中洲屋台 交龍,Koryu,food_place,official_yatai,fukuoka_yatai_curated,161394,https://yokanavi.com/yatai/161394/,料理は、鶏ガラから炊き出す“鶏白湯”を使った創作料理が看板。ゆっくりと、お酒と会話が楽しめるオトナの屋台です。,おでん,福岡県福岡市博多区中洲4-1,33.5912656,130.4071713,,,1800,博多中洲屋台 交龍 / おでん / 中洲 / 料理は、鶏ガラから炊き出す“鶏白湯”を使った創作料理が看板。ゆっくりと、お酒と会話が楽しめるオトナの屋台です。,0.95,accepted,true,Fukuoka official yatai dataset; deduplicated by 屋台ID
official-fukuoka-yatai-161395,jp-fukuoka,후쿠오카,JP,博多屋台 中洲十番,博多屋台 中洲十番,Nakasu juban,food_place,official_yatai,fukuoka_yatai_curated,161395,https://yokanavi.com/yatai/161395/,福岡産の原材料で博多の名物料理をお出ししております。,ラーメン/焼きラーメン/うどん/焼き鳥/おでん/餃子,福岡県福岡市博多区中洲1-8（清流公園内）,33.5902997,130.4083795,,,1500,博多屋台 中洲十番 / ラーメン/焼きラーメン/うどん/焼き鳥/おでん/餃子 / 中洲 / 福岡産の原材料で博多の名物料理をお出ししております。,0.95,accepted,true,Fukuoka official yatai dataset; deduplicated by 屋台ID
official-fukuoka-yatai-161438,jp-fukuoka,후쿠오카,JP,天神 屋台 あごだし亭きさいち,天神 屋台 あごだし亭きさいち,Agodashitei Kisaichi,food_place,official_yatai,fukuoka_yatai_curated,161438,https://yokanavi.com/yatai/161438/,嬉しい！楽しい！入りやすい！屋台初心者でも気軽に楽しめるお店！,うどん/おでん/餃子/その他,福岡県福岡市中央区天神2-12-1,33.5915637,130.398532,,,2000,天神 屋台 あごだし亭きさいち / うどん/おでん/餃子/その他 / 天神 / 嬉しい！楽しい！入りやすい！屋台初心者でも気軽に楽しめるお店！,0.95,accepted,true,Fukuoka official yatai dataset; deduplicated by 屋台ID
official-fukuoka-yatai-161440,jp-fukuoka,후쿠오카,JP,ジビエ料理屋台 情熱の千鳥足,ジビエ料理屋台 情熱の千鳥足,Jonetsu no chidoriashi,food_place,official_yatai,fukuoka_yatai_curated,161440,https://yokanavi.com/yatai/161440/,猪や鹿などジビエ肉を中心としたお料理とお酒をお出ししています。苦手な方のために焼き鳥などもご用意しております。,焼き鳥/おでん/餃子/洋食・西洋料理/その他,福岡県福岡市中央区渡辺通4-9,33.5870954,130.4017551,,,1500,ジビエ料理屋台 情熱の千鳥足 / 焼き鳥/おでん/餃子/洋食・西洋料理/その他 / 天神 / 猪や鹿などジビエ肉を中心としたお料理とお酒をお出ししています。苦手な方のために焼き鳥などもご用意しております。,0.95,accepted,true,Fukuoka official yatai dataset; deduplicated by 屋台ID
official-fukuoka-yatai-161441,jp-fukuoka,후쿠오카,JP,レミさんち,レミさんち,Chez Remy,food_place,official_yatai,fukuoka_yatai_curated,161441,https://yokanavi.com/yatai/161441/,フランス人オーナーが迎える創作カジュアルフレンチ！,洋食・西洋料理,福岡県福岡市中央区渡辺通4-9,33.5870305,130.4017984,,,2000,レミさんち / 洋食・西洋料理 / 天神 / フランス人オーナーが迎える創作カジュアルフレンチ！,0.95,accepted,true,Fukuoka official yatai dataset; deduplicated by 屋台ID
official-fukuoka-yatai-195675,jp-fukuoka,후쿠오카,JP,megane coffee & spirits,megane coffee & spirits,megane coffee & spirits,food_place,official_yatai,fukuoka_yatai_curated,195675,https://yokanavi.com/yatai/195675/,ハンドドリップのコーヒーと、焼酎やクラフトジンなどの蒸溜酒をメインにした屋台です。,その他,福岡県福岡市中央区天神4-2-1,33.5931715,130.4007243,,,2000,megane coffee & spirits / その他 / 天神 / ハンドドリップのコーヒーと、焼酎やクラフトジンなどの蒸溜酒をメインにした屋台です。,0.95,accepted,true,Fukuoka official yatai dataset; deduplicated by 屋台ID
official-fukuoka-yatai-195686,jp-fukuoka,후쿠오카,JP,ナカナカナカ,ナカナカナカ,Nakanakanaka,food_place,official_yatai,fukuoka_yatai_curated,195686,https://yokanavi.com/yatai/195686/,クラフト生ビールが飲める屋台はここだけ！,ラーメン/焼きラーメン/焼き鳥/餃子,福岡県福岡市中央区天神2-1-1,33.5891361,130.3998866,,,1500,ナカナカナカ / ラーメン/焼きラーメン/焼き鳥/餃子 / 天神 / クラフト生ビールが飲める屋台はここだけ！,0.95,accepted,true,Fukuoka official yatai dataset; deduplicated by 屋台ID
official-fukuoka-yatai-197089,jp-fukuoka,후쿠오카,JP,博多屋台よっちゃん,博多屋台よっちゃん,Yotchan,food_place,official_yatai,fukuoka_yatai_curated,197089,https://yokanavi.com/yatai/197089/,人気メニューは、餃子、明太だし巻き玉子、焼きラーメンです！,ラーメン/焼きラーメン/焼き鳥/おでん/餃子,福岡県福岡市博多区中洲4-1,33.5913851,130.4070521,,,1500,博多屋台よっちゃん / ラーメン/焼きラーメン/焼き鳥/おでん/餃子 / 中洲 / 人気メニューは、餃子、明太だし巻き玉子、焼きラーメンです！,0.95,accepted,true,Fukuoka official yatai dataset; deduplicated by 屋台ID
official-fukuoka-yatai-197096,jp-fukuoka,후쿠오카,JP,たけちゃんfr司,たけちゃんfr司,Takechan fr Tsukasa,food_place,official_yatai,fukuoka_yatai_curated,197096,https://yokanavi.com/yatai/197096/,敷居の低い、初心者向けの屋台です。最初に寄るもヨシ！締めに寄るもヨシ！何でも情報持っていきんしゃい！,ラーメン/焼きラーメン/焼き鳥/おでん/その他,福岡県福岡市博多区中洲4-1,33.5913171,130.4071167,,,2000,たけちゃんfr司 / ラーメン/焼きラーメン/焼き鳥/おでん/その他 / 中洲 / 敷居の低い、初心者向けの屋台です。最初に寄るもヨシ！締めに寄るもヨシ！何でも情報持っていきんしゃい！,0.95,accepted,true,Fukuoka official yatai dataset; deduplicated by 屋台ID
official-fukuoka-yatai-219040,jp-fukuoka,후쿠오카,JP,El Bajon,El Bajon,El Bajon,food_place,official_yatai,fukuoka_yatai_curated,219040,https://yokanavi.com/yatai/219040/,本物の多国籍料理が日本で食べられる屋台。,焼きラーメン/おでん/洋食・西洋料理/海外の料理,福岡県福岡市中央区天神4-2-1,33.5931184,130.4006148,,,2000,El Bajon / 焼きラーメン/おでん/洋食・西洋料理/海外の料理 / 天神 / 本物の多国籍料理が日本で食べられる屋台。,0.95,accepted,true,Fukuoka official yatai dataset; deduplicated by 屋台ID
official-fukuoka-yatai-219042,jp-fukuoka,후쿠오카,JP,HEROs屋台 蒸上,HEROs屋台 蒸上,Jojo,food_place,official_yatai,fukuoka_yatai_curated,219042,https://yokanavi.com/yatai/219042/,福岡で唯一の蒸物屋台。数種の焼売を始め、茶碗蒸し、せいろ蒸し。,おでん/その他,福岡県福岡市中央区天神4-2-1,33.5894973,130.4001316,,,1500,HEROs屋台 蒸上 / おでん/その他 / 天神 / 福岡で唯一の蒸物屋台。数種の焼売を始め、茶碗蒸し、せいろ蒸し。,0.95,accepted,true,Fukuoka official yatai dataset; deduplicated by 屋台ID
official-fukuoka-yatai-219045,jp-fukuoka,후쿠오카,JP,ばらかもん,ばらかもん,Barakamon,food_place,official_yatai,fukuoka_yatai_curated,219045,https://yokanavi.com/yatai/219045/,長崎県五島市出身の店主による趣向を凝らしたメニューや唯一無二の空間が売りの屋台。,ラーメン/焼きラーメン/焼き鳥/おでん/餃子,福岡県福岡市中央区天神2-13-1,33.5920208,130.3975979,,,2000,ばらかもん / ラーメン/焼きラーメン/焼き鳥/おでん/餃子 / 天神 / 長崎県五島市出身の店主による趣向を凝らしたメニューや唯一無二の空間が売りの屋台。,0.95,accepted,true,Fukuoka official yatai dataset; deduplicated by 屋台ID
official-fukuoka-yatai-219047,jp-fukuoka,후쿠오카,JP,博多でかごっま屋台 酔っきー,博多でかごっま屋台 酔っきー,Yocky,food_place,official_yatai,fukuoka_yatai_curated,219047,https://yokanavi.com/yatai/219047/,博多で楽しめるかごっま（鹿児島）屋台。,焼きラーメン/天ぷら/おでん/餃子,福岡県福岡市中央区天神2-13-1,33.5920278,130.3976469,,,1500,博多でかごっま屋台 酔っきー / 焼きラーメン/天ぷら/おでん/餃子 / 天神 / 博多で楽しめるかごっま（鹿児島）屋台。,0.95,accepted,true,Fukuoka official yatai dataset; deduplicated by 屋台ID
official-fukuoka-yatai-219049,jp-fukuoka,후쿠오카,JP,あつまれ！ケンイチの森,あつまれ！ケンイチの森,Kennichi no mori,food_place,official_yatai,fukuoka_yatai_curated,219049,https://yokanavi.com/yatai/219049/,１人で来ても色々頼めるお手軽サイズでリーズナブルな小皿街中華の屋台。,おでん/中華料理,福岡県福岡市中央区天神2-13-1,33.5920656,130.3977884,,,1800,あつまれ！ケンイチの森 / おでん/中華料理 / 天神 / １人で来ても色々頼めるお手軽サイズでリーズナブルな小皿街中華の屋台。,0.95,accepted,true,Fukuoka official yatai dataset; deduplicated by 屋台ID
official-fukuoka-yatai-234287,jp-fukuoka,후쿠오카,JP,えんまんや,えんまんや,Enmanya,food_place,official_yatai,fukuoka_yatai_curated,234287,https://yokanavi.com/yatai/234287/,博多名物×地元食材のコラボレーション!! 趣向を凝らした創作料理が売りの屋台。,ラーメン/焼きラーメン/餃子,福岡県福岡市博多区中洲1-8（清流公園内）,33.5903481,130.408341,,,1500,えんまんや / ラーメン/焼きラーメン/餃子 / 中洲 / 博多名物×地元食材のコラボレーション!! 趣向を凝らした創作料理が売りの屋台。,0.95,accepted,true,Fukuoka official yatai dataset; deduplicated by 屋台ID
official-fukuoka-yatai-234291,jp-fukuoka,후쿠오카,JP,ウルトラC,ウルトラC,ULTRA C,food_place,official_yatai,fukuoka_yatai_curated,234291,https://yokanavi.com/yatai/234291/,九州産の野菜や肉を素材の美味しさを楽しめる串カツがメイン。お客様同士の繋がりの交差点となるよう、会話のきっかけを生んでいきます。,おでん/その他,福岡県福岡市博多区中洲中島町1,33.5948739,130.4033585,,,2000,ウルトラC / おでん/その他 / 中洲 / 九州産の野菜や肉を素材の美味しさを楽しめる串カツがメイン。お客様同士の繋がりの交差点となるよう、会話のきっかけを生んでいきます。,0.95,accepted,true,Fukuoka official yatai dataset; deduplicated by 屋台ID
official-fukuoka-yatai-234294,jp-fukuoka,후쿠오카,JP,博多屋台 繋々,博多屋台 繋々,Tsunatsuna,food_place,official_yatai,fukuoka_yatai_curated,234294,https://yokanavi.com/yatai/234294/,新鮮な福岡の食材を使った料理と豊富な種類のお酒を楽しめるアットホームな屋台。,その他,福岡県福岡市博多区中洲中島町1,33.5949042,130.4033874,,,1500,博多屋台 繋々 / その他 / 中洲 / 新鮮な福岡の食材を使った料理と豊富な種類のお酒を楽しめるアットホームな屋台。,0.95,accepted,true,Fukuoka official yatai dataset; deduplicated by 屋台ID
official-fukuoka-yatai-234298,jp-fukuoka,후쿠오카,JP,炉端屋台 正,炉端屋台 正,Masa,food_place,official_yatai,fukuoka_yatai_curated,234298,https://yokanavi.com/yatai/234298/,あの大行列ラーメン店”博多一双”の店主が手掛けるオール550円の炉端屋台！,ラーメン/その他,福岡県福岡市中央区渡辺通4-6,33.5857805,130.4029592,,,,炉端屋台 正 / ラーメン/その他 / 天神 / あの大行列ラーメン店”博多一双”の店主が手掛けるオール550円の炉端屋台！,0.95,accepted,true,Fukuoka official yatai dataset; deduplicated by 屋台ID
official-fukuoka-yatai-234300,jp-fukuoka,후쿠오카,JP,ひとつ屋根のした,ひとつ屋根のした,Hitotsu Yane no Shita,food_place,official_yatai,fukuoka_yatai_curated,234300,https://yokanavi.com/yatai/234300/,店主もスタッフも女性が切り盛り。実家のようなほっとする空間で博多のおふくろの味を堪能してみては？,うどん/おでん/餃子,福岡県福岡市中央区天神2-1-1（福岡三越東側）,33.589103,130.3999564,,,1500,ひとつ屋根のした / うどん/おでん/餃子 / 天神 / 店主もスタッフも女性が切り盛り。実家のようなほっとする空間で博多のおふくろの味を堪能してみては？,0.95,accepted,true,Fukuoka official yatai dataset; deduplicated by 屋台ID
official-fukuoka-yatai-235006,jp-fukuoka,후쿠오카,JP,長浜市民球場,長浜市民球場,Nagahama Shimin kyujo,food_place,official_yatai,fukuoka_yatai_curated,235006,https://yokanavi.com/yatai/235006/,乾杯ではなく「プレイボール」お会計ではなく「ゲームセット」,ラーメン/焼きラーメン/焼き鳥/おでん,福岡県福岡市中央区長浜3-14,33.593104,130.3875172,,,2000,長浜市民球場 / ラーメン/焼きラーメン/焼き鳥/おでん / 長浜 / 乾杯ではなく「プレイボール」お会計ではなく「ゲームセット」,0.95,accepted,true,Fukuoka official yatai dataset; deduplicated by 屋台ID
official-fukuoka-yatai-235008,jp-fukuoka,후쿠오카,JP,屋台のたまちゃん別館,屋台のたまちゃん別館,Yatai no Tamachan Annex,food_place,official_yatai,fukuoka_yatai_curated,235008,https://yokanavi.com/yatai/235008/,焼き鳥やおでん、ラーメンなど屋台の定番メニューを味わえます！常連客、観光客でいつも賑わっている、人気の屋台です。,ラーメン/焼きラーメン/焼き鳥/おでん,福岡県福岡市中央区長浜3-14,33.5930497,130.3874039,,,2000,屋台のたまちゃん別館 / ラーメン/焼きラーメン/焼き鳥/おでん / 長浜 / 焼き鳥やおでん、ラーメンなど屋台の定番メニューを味わえます！常連客、観光客でいつも賑わっている、人気の屋台です。,0.95,accepted,true,Fukuoka official yatai dataset; deduplicated by 屋台ID
official-fukuoka-yatai-235010,jp-fukuoka,후쿠오카,JP,屋台のたまちゃん,屋台のたまちゃん,Yatai no Tamachan,food_place,official_yatai,fukuoka_yatai_curated,235010,https://yokanavi.com/yatai/235010/,焼き鳥やおでん、ラーメンなど屋台の定番メニューを味わえます！長浜屋台街のリーダーである店主と明るいスタッフとの会話も楽しめる人気の屋台です。,ラーメン/焼きラーメン/焼き鳥/おでん,福岡県福岡市中央区長浜3-14,33.59302,130.3873533,,,2000,屋台のたまちゃん / ラーメン/焼きラーメン/焼き鳥/おでん / 長浜 / 焼き鳥やおでん、ラーメンなど屋台の定番メニューを味わえます！長浜屋台街のリーダーである店主と明るいスタッフとの会話も楽しめる人気の屋台です。,0.95,accepted,true,Fukuoka official yatai dataset; deduplicated by 屋台ID
official-fukuoka-yatai-235012,jp-fukuoka,후쿠오카,JP,長浜のひろし,長浜のひろし,Nagahama no Hiroshi,food_place,official_yatai,fukuoka_yatai_curated,235012,https://yokanavi.com/yatai/235012/,旬の野菜の肉巻がメインの屋台！,焼きラーメン/焼き鳥/おでん/餃子,福岡県福岡市中央区長浜3-14,33.5929821,130.3872463,,,1500,長浜のひろし / 焼きラーメン/焼き鳥/おでん/餃子 / 長浜 / 旬の野菜の肉巻がメインの屋台！,0.95,accepted,true,Fukuoka official yatai dataset; deduplicated by 屋台ID
official-fukuoka-yatai-235014,jp-fukuoka,후쿠오카,JP,長浜屋台 どげん家,長浜屋台 どげん家,Dogenya,food_place,official_yatai,fukuoka_yatai_curated,235014,https://yokanavi.com/yatai/235014/,唐揚げ屋の大将が串カツ・串揚げで勝負。サックサクの絶品揚げ物をご賞味あれ。,ラーメン/天ぷら/おでん,福岡県福岡市中央区長浜3-14,33.5929664,130.3872082,,,1500,長浜屋台 どげん家 / ラーメン/天ぷら/おでん / 長浜 / 唐揚げ屋の大将が串カツ・串揚げで勝負。サックサクの絶品揚げ物をご賞味あれ。,0.95,accepted,true,Fukuoka official yatai dataset; deduplicated by 屋台ID
official-fukuoka-yatai-235016,jp-fukuoka,후쿠오카,JP,長浜少衛,長浜少衛,Nagahama Shoei,food_place,official_yatai,fukuoka_yatai_curated,235016,https://yokanavi.com/yatai/235016/,中国の本格屋台メニューを中国人店主が現地の味で提供！,ラーメン/焼きラーメン/焼き鳥/餃子/中華料理,福岡県福岡市中央区長浜3-14,33.5929529,130.3871715,,,1500,長浜少衛 / ラーメン/焼きラーメン/焼き鳥/餃子/中華料理 / 長浜 / 中国の本格屋台メニューを中国人店主が現地の味で提供！,0.95,accepted,true,Fukuoka official yatai dataset; deduplicated by 屋台ID
official-fukuoka-yatai-235018,jp-fukuoka,후쿠오카,JP,明太中毒,明太中毒,Mentai Chudoku,food_place,official_yatai,fukuoka_yatai_curated,235018,https://yokanavi.com/yatai/235018/,屋台初の明太子専門店！,焼きラーメン/餃子,福岡県福岡市中央区長浜3-14,33.5929395,130.3871357,,,1500,明太中毒 / 焼きラーメン/餃子 / 長浜 / 屋台初の明太子専門店！,0.95,accepted,true,Fukuoka official yatai dataset; deduplicated by 屋台ID
official-fukuoka-yatai-124519,jp-fukuoka,후쿠오카,JP,新鮮具味,新鮮具味,Shinsengumi,food_place,official_yatai,fukuoka_yatai_curated,124519,https://yokanavi.com/yatai/124519/,"<iframe src=""https://www.google.com/maps/d/u/1/embed?mid=1rlAgWb3vkgIh6PFmwcRe2qTs5EKUN1U&amp;ehbc=2E312F"" width=""100%"" height=""480""></iframe>",ラーメン/焼き鳥/おでん,福岡県福岡市中央区西中洲11-9（小島ビル）,33.5894019,130.4040157,,,,"新鮮具味 / ラーメン/焼き鳥/おでん / 天神 / <iframe src=""https://www.google.com/maps/d/u/1/embed?mid=1rlAgWb3vkgIh6PFmwcRe2qTs5EKUN1U&amp;ehbc=2E312F"" width=""100%"" height=""480""></iframe>",0.95,accepted,true,Fukuoka official yatai dataset; deduplicated by 屋台ID
official-fukuoka-yatai-122482,jp-fukuoka,후쿠오카,JP,屋台もり,屋台もり,Mori,food_place,official_yatai,fukuoka_yatai_curated,122482,https://yokanavi.com/yatai/122482/,酒が飲めない大将の軽快な喋りに酔いしれてみては,天ぷら/焼き鳥,福岡県福岡市博多区中洲4-1,33.5914059,130.4070188,,,3000,屋台もり / 天ぷら/焼き鳥 / 中洲 / 酒が飲めない大将の軽快な喋りに酔いしれてみては,0.95,accepted,true,Fukuoka official yatai dataset; deduplicated by 屋台ID
official-fukuoka-yatai-124510,jp-fukuoka,후쿠오카,JP,安さん,安さん,Yasusan,food_place,official_yatai,fukuoka_yatai_curated,124510,https://yokanavi.com/yatai/124510/,,ラーメン/おでん/餃子,福岡県福岡市中央区天神2-1-1（福岡三越前）,33.5882722,130.4005732,,,,安さん / ラーメン/おでん/餃子 / 天神,0.95,accepted,true,Fukuoka official yatai dataset; deduplicated by 屋台ID
official-fukuoka-yatai-267999,jp-fukuoka,후쿠오카,JP,天神屋台ぞのちゃん,天神屋台ぞのちゃん,tenjinytai zonochan,food_place,official_yatai,fukuoka_yatai_curated,267999,https://yokanavi.com/spots/267999,明太子創作料理や九州産和牛もつ料理で博多の魅力満載の屋台！,ラーメン/焼きラーメン/焼き鳥/おでん/餃子/,福岡県福岡市中央区渡辺通4-1-36（BiVi福岡前）,33.585512,130.403213,,,2000,天神屋台ぞのちゃん / ラーメン/焼きラーメン/焼き鳥/おでん/餃子/ / 天神 / 明太子創作料理や九州産和牛もつ料理で博多の魅力満載の屋台！,0.95,accepted,true,Fukuoka official yatai dataset; deduplicated by 屋台ID
official-fukuoka-yatai-268000,jp-fukuoka,후쿠오카,JP,博多屋台からす天狗,博多屋台からす天狗,hakatayatai karasutengu,food_place,official_yatai,fukuoka_yatai_curated,268000,https://yokanavi.com/spots/268000,豊前のご当地グルメや食材を使った料理をご用意しています。,ラーメン/焼き鳥/おでん,福岡県福岡市中央区渡辺通4-1-36（BiVi福岡前）,33.585512,130.403213,,,2000,博多屋台からす天狗 / ラーメン/焼き鳥/おでん / 天神 / 豊前のご当地グルメや食材を使った料理をご用意しています。,0.95,accepted,true,Fukuoka official yatai dataset; deduplicated by 屋台ID
official-fukuoka-yatai-268001,jp-fukuoka,후쿠오카,JP,バル河野,バル河野,BAL Kono,food_place,official_yatai,fukuoka_yatai_curated,268001,https://yokanavi.com/spots/268001,四国松山の人気店の技×福岡食材で創る新感覚イタリアン！,洋食・西洋料理,福岡県福岡市中央区天神4-2-1,33.593127,130.400541,,,2000,バル河野 / 洋食・西洋料理 / 天神 / 四国松山の人気店の技×福岡食材で創る新感覚イタリアン！,0.95,accepted,true,Fukuoka official yatai dataset; deduplicated by 屋台ID
official-fukuoka-yatai-268018,jp-fukuoka,후쿠오카,JP,LEF,LEF,LEF,food_place,official_yatai,fukuoka_yatai_curated,268018,https://yokanavi.com/spots/268018,九州の旬食材を活かしたおばんざいと、こだわりの器でお迎えします。,その他,福岡県福岡市中央区天神4-2-1,33.593127,130.400541,,,2000,LEF / その他 / 天神 / 九州の旬食材を活かしたおばんざいと、こだわりの器でお迎えします。,0.95,accepted,true,Fukuoka official yatai dataset; deduplicated by 屋台ID
official-fukuoka-yatai-268019,jp-fukuoka,후쿠오카,JP,にのつぎ,にのつぎ,Ninotsugi,food_place,official_yatai,fukuoka_yatai_curated,268019,https://yokanavi.com/spots/268019,ポップな料理とレトロな雰囲気で、誰もが笑顔になれる空間を提供！,ラーメン/焼きラーメン/焼売,福岡県福岡市中央区渡辺通4-1-36（BiVi福岡前）,33.585512,130.403213,,,2000,にのつぎ / ラーメン/焼きラーメン/焼売 / 天神 / ポップな料理とレトロな雰囲気で、誰もが笑顔になれる空間を提供！,0.95,accepted,true,Fukuoka official yatai dataset; deduplicated by 屋台ID
official-fukuoka-yatai-268023,jp-fukuoka,후쿠오카,JP,長浜屋台がぶがぶ。,長浜屋台がぶがぶ。,nagahamayatai gabugabu,food_place,official_yatai,fukuoka_yatai_curated,268023,https://yokanavi.com/spots/268023,九州産地鶏や糸島の卵をつかったふわふわジューシーな”創作つくね”がイチオシ！,うどん/おでん/天ぷら,福岡県福岡市中央区長浜3-14,33.59313,130.387712,,,2000,長浜屋台がぶがぶ。 / うどん/おでん/天ぷら / 長浜 / 九州産地鶏や糸島の卵をつかったふわふわジューシーな”創作つくね”がイチオシ！,0.95,accepted,true,Fukuoka official yatai dataset; deduplicated by 屋台ID
official-kyoto-facility-0000007795,jp-kyoto,교토,JP,貴了庵,貴了庵,,place,tourism_facility,kyoto_tourism_facilities_city_only,0000007795,http://www.nagakusa.info,平成21年（2009）10月に平野神社近くに移転し『貴了庵』としてオープン。昔ながらの町家をそのままいかし、京都の伝統工芸「京繍」の作品の展示、着物・帯などのおあつらえ、刺繍小物の販売や京刺繍教室・一日体験を行っている。京繍は絹織物などに絹糸・金銀糸を刺繍していく。能衣装や着物・掛軸など季節のしつらえに合わせた作品を観ることができる。,관광시설,京都府京都市北区平野鳥居前町5,35.033360,135.733745,,,"入庵料 1,000円（抹茶と菓子付）※要予約※月1回、日曜日も受け付けています、お問い合わせください。日本刺繍一日体験受講料・材料費 22,000円～（税込）所要時間／約3時間※要予約（一週間前までに）",貴了庵 / 平成21年（2009）10月に平野神社近くに移転し『貴了庵』としてオープン。昔ながらの町家をそのままいかし、京都の伝統工芸「京繍」の作品の展示、着物・帯などのおあつらえ、刺繍小物の販売や京刺繍教室・一日体験を行っている。京繍は絹織物などに絹糸・金銀糸を刺繍していく。能衣装や着物・掛軸など季節のしつらえに合わせた作品を観 / 市バス「わら天神前」下車、徒歩8分,0.9,accepted,true,Kyoto Prefecture official tourism facility; filtered to municipality names starting with 京都市. Lodging/restaurant-like records are excluded from primary tourism-place anchors by name terms.
official-kyoto-facility-0000003468,jp-kyoto,교토,JP,鹿苑寺（金閣寺）,鹿苑寺（金閣寺）,,place,tourism_facility,kyoto_tourism_facilities_city_only,0000003468,http://www.shokoku-ji.jp/,昭和62年（1987）の大修理でいっそう輝きを増し、北山文化の象徴として国内外に知られる名刹。足利義満が応永4年（1397）西園寺家の山荘を譲り受け、義満の死後、鹿苑寺と名付けられた。金閣は舎利殿として立てられた金箔の三層楼閣が鏡湖池に映える。,관광시설,京都府京都市北区金閣寺町1,35.039381,135.729244,,,一般 400円小・中学生 300円,鹿苑寺（金閣寺） / 昭和62年（1987）の大修理でいっそう輝きを増し、北山文化の象徴として国内外に知られる名刹。足利義満が応永4年（1397）西園寺家の山荘を譲り受け、義満の死後、鹿苑寺と名付けられた。金閣は舎利殿として立てられた金箔の三層楼閣が鏡湖池に映える。 / 市バス（101、204、205系統）「金閣寺道」下車市バス（12、59系統）「金閣寺道」下車,0.9,accepted,true,Kyoto Prefecture official tourism facility; filtered to municipality names starting with 京都市. Lodging/restaurant-like records are excluded from primary tourism-place anchors by name terms.
official-kyoto-facility-0000009493,jp-kyoto,교토,JP,源光庵,源光庵,,place,tourism_facility,kyoto_tourism_facilities_city_only,0000009493,http://genkouan.or.jp/,源光庵は鷹峯にある曹洞宗の寺。もとは貞和2年（1346）、大徳寺の徹翁国師が隠居所として開いたものだが、元禄7年（1694）卍山禅師が開山となり、これより曹洞宗となる。本堂前に広がる庭園は、四角い「迷いの窓」と丸い「悟りの窓」の両方から鑑賞することができる。また本堂の天井には伏見城の遺構と伝えられ、血天井とよばれている。〈坐禅〉個人対象 定例第1日曜日、7時～9時まで参禅会。ミニ法話有り。（1月、8月、11月、12月は休会）団体対象 定例外に希望により設定。ただし、事前に要問い合わせ、要予約。※ご利益：開運、霊芝観世音菩薩,관광시설,京都府京都市北区鷹峯北鷹峯町47,35.054792,135.731709,,,大人 400円（中学生以上）※11月は500円子供 200円（小学生）,源光庵 / 源光庵は鷹峯にある曹洞宗の寺。もとは貞和2年（1346）、大徳寺の徹翁国師が隠居所として開いたものだが、元禄7年（1694）卍山禅師が開山となり、これより曹洞宗となる。本堂前に広がる庭園は、四角い「迷いの窓」と丸い「悟りの窓」の両方から鑑賞することができる。また本堂の天井には伏見城の遺構と伝えられ、血天井とよばれている / 市バス「鷹峯源光庵前」下車,0.9,accepted,true,Kyoto Prefecture official tourism facility; filtered to municipality names starting with 京都市. Lodging/restaurant-like records are excluded from primary tourism-place anchors by name terms.
official-kyoto-facility-0000000084,jp-kyoto,교토,JP,建勲神社,建勲神社,,place,tourism_facility,kyoto_tourism_facilities_city_only,0000000084,http://kenkun-jinja.org,戦乱の世に終止符を打ち、天下統一の道筋をつけた織田信長の業績をたたえ、明治天皇によって創建された。本殿、拝殿、貴賓館、社務所などの建物が整然と並ぶ境内は、東山を見晴らす絶景の地にある。,관광시설,京都府京都市北区紫野北舟岡町49,35.038697,135.743200,,,無料,建勲神社 / 戦乱の世に終止符を打ち、天下統一の道筋をつけた織田信長の業績をたたえ、明治天皇によって創建された。本殿、拝殿、貴賓館、社務所などの建物が整然と並ぶ境内は、東山を見晴らす絶景の地にある。 / 市バス「建勲神社前」下車、徒歩9分,0.9,accepted,true,Kyoto Prefecture official tourism facility; filtered to municipality names starting with 京都市. Lodging/restaurant-like records are excluded from primary tourism-place anchors by name terms.
official-kyoto-facility-0000007556,jp-kyoto,교토,JP,大谷大学博物館,大谷大学博物館,,place,tourism_facility,kyoto_tourism_facilities_city_only,0000007556,http://www.otani.ac.jp/kyo_kikan/museum/,大谷大学は寛永5年（1665）に東本願寺の学寮として京都の地に創立されたことにはじまる。明治34年（1901）には東京巣鴨に移転開校し、近代的な大学としてスタートした。そののち大正2年（1913）に現在の地に移転して今日に至っている。平成13年（2001）に近代化100年（創立336年）を迎えるにあたり、真宗総合学術センター・響流館を新設し、創立以来収集してきた多くの資料を広く展示、公開する博物館施設が併設され、平成15年（2003）10月に真宗・仏教文化財を中心に展示・公開する大学博物館として開館した。,관광시설,京都府京都市北区小山上総町 大谷大学内 響流館1階,35.043195,135.758911,,,企画展 無料特別展 有料（一般、大学生のみ）,大谷大学博物館 / 大谷大学は寛永5年（1665）に東本願寺の学寮として京都の地に創立されたことにはじまる。明治34年（1901）には東京巣鴨に移転開校し、近代的な大学としてスタートした。そののち大正2年（1913）に現在の地に移転して今日に至っている。平成13年（2001）に近代化100年（創立336年）を迎えるにあたり、真宗総合学術セ / 地下鉄烏丸線「北大路」駅下車すぐ市バス「北大路バスターミナル」下車すぐ京都バス「烏丸北大路」下車、徒歩3分,0.9,accepted,true,Kyoto Prefecture official tourism facility; filtered to municipality names starting with 京都市. Lodging/restaurant-like records are excluded from primary tourism-place anchors by name terms.
official-kyoto-facility-0000000012,jp-kyoto,교토,JP,ガラシャ/グラススタジオ北やま,ガラシャ/グラススタジオ北やま,,place,tourism_facility,kyoto_tourism_facilities_city_only,0000000012,http://www.kyotogracia.jp,ステンドグラスは注文制作の他、ランプ、パネル、アクセサリー、小物、万華鏡などを展示販売。ショップは吹きガラス作家による日常のガラス中心に。隣接スペースでは、ステンドグラス教室、材料販売、体験教室（2時間～）ができます。,관광시설,京都府京都市北区小山西元町10 北山通新町角,35.049785,135.754437,,,"ペンダント体験他 2,500円～（税別）※材料費込み・持ち物不用※要予約",ガラシャ/グラススタジオ北やま / ステンドグラスは注文制作の他、ランプ、パネル、アクセサリー、小物、万華鏡などを展示販売。ショップは吹きガラス作家による日常のガラス中心に。隣接スペースでは、ステンドグラス教室、材料販売、体験教室（2時間～）ができます。 / 市バス「上堀川」下車、東へ徒歩3分地下鉄烏丸線「北山」駅下車、西へ徒歩10分,0.9,accepted,true,Kyoto Prefecture official tourism facility; filtered to municipality names starting with 京都市. Lodging/restaurant-like records are excluded from primary tourism-place anchors by name terms.
official-kyoto-facility-0000003749,jp-kyoto,교토,JP,島津アリーナ京都（京都府立体育館）,島津アリーナ京都（京都府立体育館）,,place,tourism_facility,kyoto_tourism_facilities_city_only,0000003749,http://www.kyoto-furitutaiikukan.jp/,"〈設置目的〉（1）府民の健康で文化的な生活の向上に寄与するためのスポーツの振興を図る。（2）行事・催物その他の用に提供する。 〈施設の特色〉スポーツ行事のほか催物などの文化的行事にも利用できる多目的施設。〈施設の内容〉第1競技場 バスケット・バレー・テニス（3面）、バドミントン（12面）、卓球台（20台～40台）、観客席／2階固定席5,016席、1階移動観覧席480席、その他仮設席設置可能第2競技場 バスケット（1面）、バレー（2面）、バドミントン（4面）、卓球台（16台）その他会議室（全10室、10人～81人収容、36平方メートル～144平方メートル、貴賓室仕様、審判控室仕様、ドーピング検査室仕様有り、全室冷暖房設備・LAN設備有り）、トレーニングルーム（個人使用）",관광시설,京都府京都市北区大将軍鷹司町,35.022866,135.728562,,,"第1競技場 全面 15,500円～1,058,860円 部分 5,100円～17,950円第2競技場 全面 6,120円～81,290円 部分 2,950円～10,500円会議室 1,020円～14,580円トレーニングルーム 350円※予約は同館へ直接（使用施設、使用区分により受付期間、料金等が大きく異なるので要注意）",島津アリーナ京都（京都府立体育館） / 〈設置目的〉（1）府民の健康で文化的な生活の向上に寄与するためのスポーツの振興を図る。（2）行事・催物その他の用に提供する。 〈施設の特色〉スポーツ行事のほか催物などの文化的行事にも利用できる多目的施設。〈施設の内容〉第1競技場 バスケット・バレー・テニス（3面）、バドミントン（12面）、卓球台（20台～40台）、観客 / JR嵯峨野線「円町」駅下車、徒歩8分市バス「府立体育館前」下車すぐ市バス「大将軍」、またはJRバス「大将軍」下車、徒歩3分市バス「等持院道」下車、徒歩4分,0.9,accepted,true,Kyoto Prefecture official tourism facility; filtered to municipality names starting with 京都市. Lodging/restaurant-like records are excluded from primary tourism-place anchors by name terms.
official-kyoto-facility-0000000276,jp-kyoto,교토,JP,平野神社,平野神社,,place,tourism_facility,kyoto_tourism_facilities_city_only,0000000276,http://www.hiranojinja.com,平安遷都にあたり平城宮後宮から遷座。「平野皇大神」を祀る。源氏・平氏の氏神として信仰を集めた。古くより【平野の夜桜】で知られ、4月10日の桜花祭では満開の桜の下をふれ太鼓を先頭に露払の鬼、天平の織姫、流鏑馬列、御鳳輦、元禄の染織娘、王朝公家による東遊・曲水遊など、約200名による華やかな時代列が続く。桜は約60種400本、早咲きは3月初旬から、遅咲きは5月初旬まで楽しめる。平野造りの本殿は重要文化財。※ご利益：開運、厄除,관광시설,京都府京都市北区平野宮本町,35.032626,135.731986,,,無料,平野神社 / 平安遷都にあたり平城宮後宮から遷座。「平野皇大神」を祀る。源氏・平氏の氏神として信仰を集めた。古くより【平野の夜桜】で知られ、4月10日の桜花祭では満開の桜の下をふれ太鼓を先頭に露払の鬼、天平の織姫、流鏑馬列、御鳳輦、元禄の染織娘、王朝公家による東遊・曲水遊など、約200名による華やかな時代列が続く。桜は約60種400 / 市バス「衣笠校前」下車、徒歩2分,0.9,accepted,true,Kyoto Prefecture official tourism facility; filtered to municipality names starting with 京都市. Lodging/restaurant-like records are excluded from primary tourism-place anchors by name terms.
official-kyoto-facility-0000009498,jp-kyoto,교토,JP,等持院,等持院,,place,tourism_facility,kyoto_tourism_facilities_city_only,0000009498,,等持院は足利家の菩提寺として知られ、霊光殿には足利歴代将軍の木像が安置されている。方丈（本堂）北側には、衣笠山を借景とした芙蓉池と東側に心字池、ともに池泉回遊式庭園がある。夢窓国師の作庭として伝わる庭園の一つ。,관광시설,京都府京都市北区等持院北町63,35.031556,135.723445,,,大人（高校生以上） 500円小人（小・中学生） 300円お抹茶 500円番茶 300円,等持院 / 等持院は足利家の菩提寺として知られ、霊光殿には足利歴代将軍の木像が安置されている。方丈（本堂）北側には、衣笠山を借景とした芙蓉池と東側に心字池、ともに池泉回遊式庭園がある。夢窓国師の作庭として伝わる庭園の一つ。 / 嵐電北野線「等持院・立命館大学衣笠キャンパス前」駅下車、徒歩8分,0.9,accepted,true,Kyoto Prefecture official tourism facility; filtered to municipality names starting with 京都市. Lodging/restaurant-like records are excluded from primary tourism-place anchors by name terms.
official-kyoto-facility-0000000678,jp-kyoto,교토,JP,御すぐき處 京都なり田,御すぐき處 京都なり田,,place,tourism_facility,kyoto_tourism_facilities_city_only,0000000678,http://suguki-narita.com/,社家の並びにのれんを構える土間には囲炉裏がある。上賀茂特産のすぐきは、塩だけで昔ながらの製造方法を用いて天秤押しで作られている。室に入れ発酵させるものと、自然発酵させる「時候なれ」とがある。,관광시설,京都府京都市北区上賀茂山本町（上賀茂神社東）,35.058030,135.753910,,,すぐき 100gあたり432円,御すぐき處 京都なり田 / 社家の並びにのれんを構える土間には囲炉裏がある。上賀茂特産のすぐきは、塩だけで昔ながらの製造方法を用いて天秤押しで作られている。室に入れ発酵させるものと、自然発酵させる「時候なれ」とがある。 / 市バス「上賀茂神社前」下車、徒歩3分,0.9,accepted,true,Kyoto Prefecture official tourism facility; filtered to municipality names starting with 京都市. Lodging/restaurant-like records are excluded from primary tourism-place anchors by name terms.
official-kyoto-facility-0000007742,jp-kyoto,교토,JP,紫野 Anri,紫野 Anri,,place,tourism_facility,kyoto_tourism_facilities_city_only,0000007742,http://www.spaghetti-anri.com,大徳寺の近く、昭和初期の町家の雰囲気をそのままにしてしっとりと情緒漂う店内では、旬の素材をたっぷりと盛り込んだスパゲッティを堪能することができる。ワインやビールに合うサイドメニューも充実。,관광시설,京都府京都市北区紫野下門前町19054,35.042331,135.748776,,,"ランチセット 1,100円～ディナーセット 1,500円～パーティメニュー 2,500円～",紫野 Anri / 大徳寺の近く、昭和初期の町家の雰囲気をそのままにしてしっとりと情緒漂う店内では、旬の素材をたっぷりと盛り込んだスパゲッティを堪能することができる。ワインやビールに合うサイドメニューも充実。 / 市バス「大徳寺前」下車、徒歩1分,0.9,accepted,true,Kyoto Prefecture official tourism facility; filtered to municipality names starting with 京都市. Lodging/restaurant-like records are excluded from primary tourism-place anchors by name terms.
official-kyoto-facility-0000000679,jp-kyoto,교토,JP,神馬堂,神馬堂,,place,tourism_facility,kyoto_tourism_facilities_city_only,0000000679,,上賀茂名物の焼き餅。つぶあんを餅で包み、両面をこんがりと焼いたもの。,관광시설,京都府京都市北区上賀茂御薗口町4,35.057985,135.751534,,,1個 130円,神馬堂 / 上賀茂名物の焼き餅。つぶあんを餅で包み、両面をこんがりと焼いたもの。 / 市バス「上賀茂神社前」下車すぐ,0.9,accepted,true,Kyoto Prefecture official tourism facility; filtered to municipality names starting with 京都市. Lodging/restaurant-like records are excluded from primary tourism-place anchors by name terms.
official-kyoto-facility-0000000680,jp-kyoto,교토,JP,一和（一文字屋和輔）,一和（一文字屋和輔）,,place,tourism_facility,kyoto_tourism_facilities_city_only,0000000680,,今宮神社のあぶり餅で有名。小さく切った餅を竹串に刺し、炭火であぶり、白味噌だれをつけたもの。,관광시설,京都府京都市北区紫野今宮町69,35.045352,135.742779,,,1人前 500円,一和（一文字屋和輔） / 今宮神社のあぶり餅で有名。小さく切った餅を竹串に刺し、炭火であぶり、白味噌だれをつけたもの。 / 市バス「今宮神社前」下車、徒歩1分市バス「船岡山」下車、徒歩5分,0.9,accepted,true,Kyoto Prefecture official tourism facility; filtered to municipality names starting with 京都市. Lodging/restaurant-like records are excluded from primary tourism-place anchors by name terms.
official-kyoto-facility-0000007953,jp-kyoto,교토,JP,大森リゾートキャンプ場,大森リゾートキャンプ場,,place,tourism_facility,kyoto_tourism_facilities_city_only,0000007953,http://omori-camp.jp/,自然に囲まれたのんびりとした空間。山あり。川あり。事前予約でアドベンチャースクールも体験できる。（そば打ちや、わらぞうり教室、曳き馬体験、ウッドクラフト等）自家製有機栽培の野菜を使った焼き肉セットも好評。（要予約）,관광시설,京都府京都市北区大森東町340-2,35.146674,135.700089,,,"場所代大人（18才以上） 1,000円小人（3才～高校生） 500円",大森リゾートキャンプ場 / 自然に囲まれたのんびりとした空間。山あり。川あり。事前予約でアドベンチャースクールも体験できる。（そば打ちや、わらぞうり教室、曳き馬体験、ウッドクラフト等）自家製有機栽培の野菜を使った焼き肉セットも好評。（要予約） / JRバス（周山行き）「小野郷」下車、6km 送迎可（要予約）,0.9,accepted,true,Kyoto Prefecture official tourism facility; filtered to municipality names starting with 京都市. Lodging/restaurant-like records are excluded from primary tourism-place anchors by name terms.
official-kyoto-facility-0000008680,jp-kyoto,교토,JP,上賀茂手づくり市,上賀茂手づくり市,,place,tourism_facility,kyoto_tourism_facilities_city_only,0000008680,http://kamigamo-tedukuriichi.com/,手づくり品に限定した市。出店数約160店。※雨天決行（ただし、警報発令時は中止）,관광시설,京都府京都市北区上賀茂本山339 上賀茂神社境内,35.059333,135.752927,,,,上賀茂手づくり市 / 手づくり品に限定した市。出店数約160店。※雨天決行（ただし、警報発令時は中止） / 市バス「上賀茂神社前」下車,0.9,accepted,true,Kyoto Prefecture official tourism facility; filtered to municipality names starting with 京都市. Lodging/restaurant-like records are excluded from primary tourism-place anchors by name terms.
official-kyoto-facility-0000006735,jp-kyoto,교토,JP,志明院,志明院,,place,tourism_facility,kyoto_tourism_facilities_city_only,0000006735,,鴨川の水源地に位置し、天長6年（829）空海によって創建された。本尊不動明王は空海の直作といわれ、日本最古の不動明王像といわれている。境内は、豊かな自然の修行場であり来山者の心を癒してくれる。京都市の天然記念物に指定されているしゃくなげ林は4月頃開花し美しい。また、歌舞伎18番「鳴神」の舞台地としても有名である。〈坐禅体験〉女性たちに山寺の自然の中で、自分を見つめ直してもらうための、女性のための心の講座「坐禅と感性」を開講。定員／10名（要予約）,관광시설,京都府京都市北区雲ケ畑出谷町261,35.136092,135.709356,,,"拝観 400円（団体20名以上は要予約）坐禅 2,700円（弁当持参）",志明院 / 鴨川の水源地に位置し、天長6年（829）空海によって創建された。本尊不動明王は空海の直作といわれ、日本最古の不動明王像といわれている。境内は、豊かな自然の修行場であり来山者の心を癒してくれる。京都市の天然記念物に指定されているしゃくなげ林は4月頃開花し美しい。また、歌舞伎18番「鳴神」の舞台地としても有名である。〈坐禅 / 雲ヶ畑バス「雲ヶ畑岩屋橋」下車、徒歩20分,0.9,accepted,true,Kyoto Prefecture official tourism facility; filtered to municipality names starting with 京都市. Lodging/restaurant-like records are excluded from primary tourism-place anchors by name terms.
official-kyoto-facility-0000000684,jp-kyoto,교토,JP,龍源院,龍源院,,place,tourism_facility,kyoto_tourism_facilities_city_only,0000000684,,大徳寺塔頭。能登の畠山氏と九州の大友氏により創建された。北庭の竜吟庭、前庭の一枝坦、東のわが国で最も小さい石庭といわれる東滴壷が見所。,관광시설,京都府京都市北区紫野大徳寺町29952,35.042137,135.746148,,,大人 350円（300円）高校生 250円（200円）小・中学生 200円（150円）（ ）内は団体（25名以上）料金,龍源院 / 大徳寺塔頭。能登の畠山氏と九州の大友氏により創建された。北庭の竜吟庭、前庭の一枝坦、東のわが国で最も小さい石庭といわれる東滴壷が見所。 / 市バス「大徳寺前」下車、徒歩5分,0.9,accepted,true,Kyoto Prefecture official tourism facility; filtered to municipality names starting with 京都市. Lodging/restaurant-like records are excluded from primary tourism-place anchors by name terms.
official-kyoto-facility-0000007723,jp-kyoto,교토,JP,手仕事雑貨屋 風土,手仕事雑貨屋 風土,,place,tourism_facility,kyoto_tourism_facilities_city_only,0000007723,http://www2n.biglobe.ne.jp/~urata/,築90年の古い米穀店を利用した、懐かしく心和む店舗空間。ShopGallery人の手が生み出すやさしい道具「手仕事」にこだわったガラス製品、陶器、鉄器などが店内に並んでいる。また、庭に面するギャラリーでは、多彩な企画展、ワークショップも開催される。,관광시설,京都府京都市北区紫野西御所田町12451,35.040872,135.751039,,,,手仕事雑貨屋 風土 / 築90年の古い米穀店を利用した、懐かしく心和む店舗空間。ShopGallery人の手が生み出すやさしい道具「手仕事」にこだわったガラス製品、陶器、鉄器などが店内に並んでいる。また、庭に面するギャラリーでは、多彩な企画展、ワークショップも開催される。 / 市バス「北大路堀川」下車すぐ地下鉄烏丸線「北大路」駅下車、西へ（大徳寺方面）徒歩12分,0.9,accepted,true,Kyoto Prefecture official tourism facility; filtered to municipality names starting with 京都市. Lodging/restaurant-like records are excluded from primary tourism-place anchors by name terms.
official-kyoto-facility-0000000687,jp-kyoto,교토,JP,高桐院,高桐院,,place,tourism_facility,kyoto_tourism_facilities_city_only,0000000687,,大徳寺塔頭。細川忠興により創建された。千利休の邸宅を移築したものといわれている書院、二畳台目の簡素な茶室松向軒や忠興・ガラシャ夫妻のお墓がある。秋は紅葉が見事。※ご利益：心のやすらぎ,관광시설,京都府京都市北区紫野大徳寺町26665,35.043172,135.743204,,,大人（高校生以上） 500円中学生 300円小学生以下無料,高桐院 / 大徳寺塔頭。細川忠興により創建された。千利休の邸宅を移築したものといわれている書院、二畳台目の簡素な茶室松向軒や忠興・ガラシャ夫妻のお墓がある。秋は紅葉が見事。※ご利益：心のやすらぎ / 市バス「大徳寺前」下車、徒歩5分,0.9,accepted,true,Kyoto Prefecture official tourism facility; filtered to municipality names starting with 京都市. Lodging/restaurant-like records are excluded from primary tourism-place anchors by name terms.
official-kyoto-facility-0000003708,jp-kyoto,교토,JP,社家,社家,,place,tourism_facility,kyoto_tourism_facilities_city_only,0000003708,,社家とは、神官の屋敷のこと。明神川沿いに建ち並んでおり、家ごとに橋がかかっていて庭内に水を引き入れ曲水や池を作っている。錦部家旧宅（西村家別邸）が公開されているほか、すぐきの老舗「なり田」も社家のひとつ。周辺の地区は伝統的建造物群保存地区。,관광시설,京都府京都市北区上賀茂神社の南側あたり,35.057788,135.754425,,,,社家 / 社家とは、神官の屋敷のこと。明神川沿いに建ち並んでおり、家ごとに橋がかかっていて庭内に水を引き入れ曲水や池を作っている。錦部家旧宅（西村家別邸）が公開されているほか、すぐきの老舗「なり田」も社家のひとつ。周辺の地区は伝統的建造物群保存地区。 / 市バス「上賀茂神社前」下車、徒歩5分,0.9,accepted,true,Kyoto Prefecture official tourism facility; filtered to municipality names starting with 京都市. Lodging/restaurant-like records are excluded from primary tourism-place anchors by name terms.
official-kyoto-facility-0000000233,jp-kyoto,교토,JP,深泥池,深泥池,,place,tourism_facility,kyoto_tourism_facilities_city_only,0000000233,,周囲約1.8kmの深泥池には、中央に植物で形成された浮き島がある。深緑の水をたたえているが、地底には泥が深く堆積し、ジュンサイのほかにタヌキモ、アブラガヤなど百余種類の水生植物が群生している。晩春にはミツガシワの白い花が咲き乱れる。池中の水生植物群落は、天然記念物に指定されている。,관광시설,京都府京都市北区上賀茂,35.057771,135.768309,,,,深泥池 / 周囲約1.8kmの深泥池には、中央に植物で形成された浮き島がある。深緑の水をたたえているが、地底には泥が深く堆積し、ジュンサイのほかにタヌキモ、アブラガヤなど百余種類の水生植物が群生している。晩春にはミツガシワの白い花が咲き乱れる。池中の水生植物群落は、天然記念物に指定されている。 / 市バス「深泥池」下車,0.9,accepted,true,Kyoto Prefecture official tourism facility; filtered to municipality names starting with 京都市. Lodging/restaurant-like records are excluded from primary tourism-place anchors by name terms.
official-kyoto-facility-0000009496,jp-kyoto,교토,JP,大仙院,大仙院,,place,tourism_facility,kyoto_tourism_facilities_city_only,0000009496,https://daisen-in.net/,"大仙院は大徳寺の塔頭でお抹茶が楽しめる。大仙院の方丈は室町時代に建てられたもので、日本最古の方丈建築として貴重なもの。特別名勝史跡に指定された枯山水庭園は龍安寺の石庭とともに天下無双の名園といわれる。〈坐禅〉坐禅と抹茶 毎週土曜日、日曜日と毎月24日、17時～18時（12月～2月は16時30分～17時30分）、料金1,400円（要事前連絡）〈法話〉予約状況に応じて、9時、10時、14時、15時、10名以上で実施（要予約）〈禅寺体験教室〉坐禅を中心に、法話・写経など気軽に禅寺の雰囲気に親しめる。毎年春休み（3月第4日曜日）と夏休み（8月第1日曜日）、10時～12時30分（受付9時30分）、子供500円、大人（保護者及び高校生以上）1,000円※小学生以下の子供だけでの参加は不可。必ず保護者同伴。",관광시설,京都府京都市北区紫野大徳寺町19725,35.044584,135.745952,,,拝観料 400円お抹茶付き 700円,"大仙院 / 大仙院は大徳寺の塔頭でお抹茶が楽しめる。大仙院の方丈は室町時代に建てられたもので、日本最古の方丈建築として貴重なもの。特別名勝史跡に指定された枯山水庭園は龍安寺の石庭とともに天下無双の名園といわれる。〈坐禅〉坐禅と抹茶 毎週土曜日、日曜日と毎月24日、17時～18時（12月～2月は16時30分～17時30分）、料金1, / 市バス「「大徳寺前」下車、徒歩8分",0.9,accepted,true,Kyoto Prefecture official tourism facility; filtered to municipality names starting with 京都市. Lodging/restaurant-like records are excluded from primary tourism-place anchors by name terms.
official-kyoto-facility-0000000255,jp-kyoto,교토,JP,大田神社,大田神社,,place,tourism_facility,kyoto_tourism_facilities_city_only,0000000255,,上賀茂神社の境外摂社で、参道東側には天然記念物の大田の沢カキツバタ群落がある。藤原俊成が歌に詠んでいることでも知られ、5月上旬ごろから濃い紫の花を咲かせはじめる。,관광시설,京都府京都市北区上賀茂本山340,35.059830,135.758501,,,カキツバタ育成協力金（開花時） 300円,大田神社 / 上賀茂神社の境外摂社で、参道東側には天然記念物の大田の沢カキツバタ群落がある。藤原俊成が歌に詠んでいることでも知られ、5月上旬ごろから濃い紫の花を咲かせはじめる。 / 市バス「上賀茂神社前」下車、徒歩10分,0.9,accepted,true,Kyoto Prefecture official tourism facility; filtered to municipality names starting with 京都市. Lodging/restaurant-like records are excluded from primary tourism-place anchors by name terms.
official-kyoto-facility-0000007797,jp-kyoto,교토,JP,表千家北山会館,表千家北山会館,,place,tourism_facility,kyoto_tourism_facilities_city_only,0000007797,https://www.kitayamakaikan.jp/,表千家北山会館は、表千家の茶道を学んでいる方はもとより、広く一般市民も気軽に茶道文化に接することができる文化会館として開設されました。年間を通して季節や歳時にちなんだ茶道具の「常設展」をはじめ、日本の伝統文化にふれる「公開文化講座」を開催。併せて、一服のお茶をさし上げております。秋には「家元伝来道具の特別展」を開催し、会期中には、展観に即したテーマで「茶の湯文化にふれる市民講座」を開催しております。,관광시설,京都府京都市北区上賀茂桜井町61,35.051269,135.761942,,,"特別展 一般 1,000円 高校・大学生、団体（20名以上） 800円 表千家同門会員 800円常設展 一般 800円 高校・大学生、団体（20名以上） 600円 表千家同門会会員無料※呈茶（菓子・薄茶）付",表千家北山会館 / 表千家北山会館は、表千家の茶道を学んでいる方はもとより、広く一般市民も気軽に茶道文化に接することができる文化会館として開設されました。年間を通して季節や歳時にちなんだ茶道具の「常設展」をはじめ、日本の伝統文化にふれる「公開文化講座」を開催。併せて、一服のお茶をさし上げております。秋には「家元伝来道具の特別展」を開催し、 / 地下鉄烏丸線「北山」駅下車、4番出口から西へ徒歩5分,0.9,accepted,true,Kyoto Prefecture official tourism facility; filtered to municipality names starting with 京都市. Lodging/restaurant-like records are excluded from primary tourism-place anchors by name terms.
official-kyoto-facility-0000003470,jp-kyoto,교토,JP,賀茂別雷神社（上賀茂神社）,賀茂別雷神社（上賀茂神社）,,place,tourism_facility,kyoto_tourism_facilities_city_only,0000003470,http://www.kamigamojinja.jp/,古代、山城の豪族賀茂氏の氏神として知られ、京都では最も古い神社。正式には賀茂別雷神社。下鴨神社とともに総称して賀茂社と呼ぶ。神域には清らかな川が流れ、細殿前の二つの立砂は神の降臨された神山を模す古代祭祀のなごりとして神秘的で清浄な雰囲気が漂う。,관광시설,京都府京都市北区上賀茂本山339,35.059293,135.752531,,,特別参拝 500円,賀茂別雷神社（上賀茂神社） / 古代、山城の豪族賀茂氏の氏神として知られ、京都では最も古い神社。正式には賀茂別雷神社。下鴨神社とともに総称して賀茂社と呼ぶ。神域には清らかな川が流れ、細殿前の二つの立砂は神の降臨された神山を模す古代祭祀のなごりとして神秘的で清浄な雰囲気が漂う。 / 市バス「上賀茂神社前」下車,0.9,accepted,true,Kyoto Prefecture official tourism facility; filtered to municipality names starting with 京都市. Lodging/restaurant-like records are excluded from primary tourism-place anchors by name terms.
official-kyoto-facility-0000007796,jp-kyoto,교토,JP,大宮交通公園,大宮交通公園,,place,tourism_facility,kyoto_tourism_facilities_city_only,0000007796,,現在、休園中。市内唯一の交通公園としての機能及び豊な緑をいかし、自転車を学び、楽しみ、交流する場及び市民の憩いの場となるよう再整備を進めており、令和3年春の再開園を予定しています。,관광시설,京都府京都市北区大宮西脇台町,35.053348,135.743392,,,入園無料コミュニティルーム利用は有料（料金未定）,大宮交通公園 / 現在、休園中。市内唯一の交通公園としての機能及び豊な緑をいかし、自転車を学び、楽しみ、交流する場及び市民の憩いの場となるよう再整備を進めており、令和3年春の再開園を予定しています。 / 市バス「大宮交通公園前」下車,0.9,accepted,true,Kyoto Prefecture official tourism facility; filtered to municipality names starting with 京都市. Lodging/restaurant-like records are excluded from primary tourism-place anchors by name terms.
official-kyoto-facility-0000003559,jp-kyoto,교토,JP,立命館大学国際平和ミュージアム（2021年4月1日～2023年9月までリニューアルのため休館）,立命館大学国際平和ミュージアム（2021年4月1日～2023年9月までリニューアルのため休館）,,place,tourism_facility,kyoto_tourism_facilities_city_only,0000003559,https://www.ritsumeikan-wp-museum.jp,立命館大学が平成4年（1992）に設立した「世界初の大学立の平和博物館」。過去の戦争の歴史から現代の戦争・紛争の実態、さらには貧困・飢餓、人権抑圧、環境破壊など、平和をめぐる今日の様々な話題を盛り込んだ、総合的な平和のためのミュージアム。展示品は、過去の戦争と人々の関わりを示す歴史資料やパネルなど、大人から子供まで分かりやすく、戦争と平和の問題について学べるようになっている。常設展示のほか、「世界報道写真展」などの特別展も随時開催。戦没画学生の遺品・遺作を展示する「無言館 京都館 いのちの画室（アトリエ）」や、展示テーマを更に調べることができる「国際平和メディア資料室」（図書室）も併設。,관광시설,京都府京都市北区等持院北町20455,35.033659,135.727344,,,大人 400円（350円）中学・高校生 300円（250円）小学生 200円（150円）（ ）内は20名以上の団体料金「世界報道写真展」開催期間中は、大人500円（団体割引無し）,立命館大学国際平和ミュージアム（2021年4月1日～2023年9月までリニューアルのため休館） / 立命館大学が平成4年（1992）に設立した「世界初の大学立の平和博物館」。過去の戦争の歴史から現代の戦争・紛争の実態、さらには貧困・飢餓、人権抑圧、環境破壊など、平和をめぐる今日の様々な話題を盛り込んだ、総合的な平和のためのミュージアム。展示品は、過去の戦争と人々の関わりを示す歴史資料やパネルなど、大人から子供まで分か / 市バス「立命館大学前」、またはJRバス「立命館大学前」下車,0.9,accepted,true,Kyoto Prefecture official tourism facility; filtered to municipality names starting with 京都市. Lodging/restaurant-like records are excluded from primary tourism-place anchors by name terms.
official-kyoto-facility-0000008703,jp-kyoto,교토,JP,梅辻家住宅,梅辻家住宅,,place,tourism_facility,kyoto_tourism_facilities_city_only,0000008703,,京都市指定有形文化財。上賀茂神社の神主筋（七家）の社家の一つ。明治4年（1871）の国家神道令により上賀茂神社より離れたが、それまで社家として代々が居住した。住宅は伝統的な賀茂の社家スタイルの建物に、京都御所内にあった学問所を座敷として移築附加えた形である。この座敷は柱も天井も黒く塗った黒書院であり、灯火窓を備えている。,관광시설,京都府京都市北区上賀茂北大路町39,35.058151,135.757217,,,800円,梅辻家住宅 / 京都市指定有形文化財。上賀茂神社の神主筋（七家）の社家の一つ。明治4年（1871）の国家神道令により上賀茂神社より離れたが、それまで社家として代々が居住した。住宅は伝統的な賀茂の社家スタイルの建物に、京都御所内にあった学問所を座敷として移築附加えた形である。この座敷は柱も天井も黒く塗った黒書院であり、灯火窓を備えている / 市バス「上賀茂神社前」下車、東へ徒歩10分,0.9,accepted,true,Kyoto Prefecture official tourism facility; filtered to municipality names starting with 京都市. Lodging/restaurant-like records are excluded from primary tourism-place anchors by name terms.
official-kyoto-facility-0000003561,jp-kyoto,교토,JP,高麗美術館,高麗美術館,,place,tourism_facility,kyoto_tourism_facilities_city_only,0000003561,http://www.koryomuseum.or.jp/,"在日朝鮮人、故鄭詔文（チョンジョムン）氏が収集した、高麗青磁や朝鮮白磁など、朝鮮美術・工芸品、約1,700点を所蔵している。年2回の展示替。ユネスコ「世界の記憶」に登録された「朝鮮通信使」資料をコーナー展示。",관광시설,京都府京都市北区紫竹上ノ岸町15,35.054360,135.750817,,,一般 500円高校・大学生 400円中学生以下無料（特別展の場合変動あり）※障害者手帳をお持ちのご本人と付き添いの方1名は無料※65歳以上の方は一般料金より2割引（年齢の分かるものを提示）,"高麗美術館 / 在日朝鮮人、故鄭詔文（チョンジョムン）氏が収集した、高麗青磁や朝鮮白磁など、朝鮮美術・工芸品、約1,700点を所蔵している。年2回の展示替。ユネスコ「世界の記憶」に登録された「朝鮮通信使」資料をコーナー展示。 / 市バス「加茂川中学前」下車、徒歩1分",0.9,accepted,true,Kyoto Prefecture official tourism facility; filtered to municipality names starting with 京都市. Lodging/restaurant-like records are excluded from primary tourism-place anchors by name terms.
official-kyoto-facility-0000009494,jp-kyoto,교토,JP,瑞峯院,瑞峯院,,place,tourism_facility,kyoto_tourism_facilities_city_only,0000009494,,"大徳寺塔頭。キリシタン大名で知られる大友宗麟公の菩提寺で、方丈・唐門・表門は天文4年（1535）に建てられた当時のもので重要文化財。重森三玲氏作庭の庭や昭和初期に建てられた茶席を公開。「独坐庭」は寺号「瑞峯」をテーマにした蓬莱山式庭園。蓬莱山の山岳から半島になり大海に絶え間なく荒波に打ち寄せながらも雄雄として独坐する大自然を表現した枯山水。「閑眠庭」は「閑眠高臥して青山に対す」という禅語から命じられた庭で、枯山水の砂利の庭を斜めによぎるように縦4個、横3個の石が置かれ、石組みが十字架に組まれ万民の霊を弔っています。また、平成元年（1989）に千利休が建てた待庵の写しを建設、予約制で公開している。毎月28日に千利休の命日にちなみ法要茶会を開催しており、どなたでも参加できる。（1人1,000円）",관광시설,京都府京都市北区紫野大徳寺町81,35.042077,135.745466,,,"大人 400円（団体30名以上350円）小人 300円待庵見学（抹茶付き）法話 1,500円抹茶 400円坐禅体験（拝観、抹茶付き） 1,500円茶道法話体験（拝観、抹茶付き） 1,500円",瑞峯院 / 大徳寺塔頭。キリシタン大名で知られる大友宗麟公の菩提寺で、方丈・唐門・表門は天文4年（1535）に建てられた当時のもので重要文化財。重森三玲氏作庭の庭や昭和初期に建てられた茶席を公開。「独坐庭」は寺号「瑞峯」をテーマにした蓬莱山式庭園。蓬莱山の山岳から半島になり大海に絶え間なく荒波に打ち寄せながらも雄雄として独坐する大 / 市バス「大徳寺前」下車、徒歩5分,0.9,accepted,true,Kyoto Prefecture official tourism facility; filtered to municipality names starting with 京都市. Lodging/restaurant-like records are excluded from primary tourism-place anchors by name terms.
official-kyoto-facility-0000001120,jp-kyoto,교토,JP,キャピタル東洋亭本店,キャピタル東洋亭本店,,place,tourism_facility,kyoto_tourism_facilities_city_only,0000001120,http://www.touyoutei.co.jp,京乃百年洋食。東洋亭ハンバーグや、トマトサラダがおすすめです。,관광시설,京都府京都市北区上賀茂岩ヶ垣内町44283,35.051340,135.763483,,,"昼 1,320円～夜 1,500円～",キャピタル東洋亭本店 / 京乃百年洋食。東洋亭ハンバーグや、トマトサラダがおすすめです。 / 地下鉄烏丸線「北山」駅下車、徒歩3分,0.9,accepted,true,Kyoto Prefecture official tourism facility; filtered to municipality names starting with 京都市. Lodging/restaurant-like records are excluded from primary tourism-place anchors by name terms.
official-kyoto-facility-0000009495,jp-kyoto,교토,JP,正伝寺,正伝寺,,place,tourism_facility,kyoto_tourism_facilities_city_only,0000009495,,船山の南麓、木々におおわれた閑静な高台に立つ。承応2年（1653）、現本堂が南禅寺の金地院から移築。方丈は伏見城の遺構の血天井があり、伏見城の御成殿とよばれていた建物を本堂としている。方丈前庭の枯山水庭園は「獅子の児渡しの庭」とよばれる平庭で、一石も用いず、白砂にサツキの刈り込みを7・5・3に配置されており、比叡山を借景としている。,관광시설,京都府京都市北区西賀茂北鎮守菴町72,35.062372,135.736924,,,高校生以上 400円中学生 300円小学生 200円,正伝寺 / 船山の南麓、木々におおわれた閑静な高台に立つ。承応2年（1653）、現本堂が南禅寺の金地院から移築。方丈は伏見城の遺構の血天井があり、伏見城の御成殿とよばれていた建物を本堂としている。方丈前庭の枯山水庭園は「獅子の児渡しの庭」とよばれる平庭で、一石も用いず、白砂にサツキの刈り込みを7・5・3に配置されており、比叡山を借 / 市バス「神光院前」下車、北西へ徒歩15分,0.9,accepted,true,Kyoto Prefecture official tourism facility; filtered to municipality names starting with 京都市. Lodging/restaurant-like records are excluded from primary tourism-place anchors by name terms.
official-kyoto-facility-0000000257,jp-kyoto,교토,JP,大徳寺,大徳寺,,place,tourism_facility,kyoto_tourism_facilities_city_only,0000000257,http://www.rinnou.net/cont_03/07daitoku/,洛北屈指の名刹、大徳寺は、臨済宗大徳寺派の大本山。応仁の乱で大部分の伽藍を焼失するなど一時寺運が衰えたが、その後一休禅師が再興し、安土桃山時代には豊臣秀吉をはじめ諸大名が伽藍の建立に力を入れたため隆盛を極めた。※大徳寺本坊は特別の場合を除き一般拝観は不可（ただし、境内は散策可）一般拝観寺院に関しては、各塔頭寺院に問い合わせ。大仙院 TEL.075-491-8346高桐院 TEL.075-492-0068（現在拝観休止中）龍源院 TEL.075-491-7635瑞峯院 TEL.075-491-1454,관광시설,京都府京都市北区紫野大徳寺町53,35.043901,135.746032,,,,大徳寺 / 洛北屈指の名刹、大徳寺は、臨済宗大徳寺派の大本山。応仁の乱で大部分の伽藍を焼失するなど一時寺運が衰えたが、その後一休禅師が再興し、安土桃山時代には豊臣秀吉をはじめ諸大名が伽藍の建立に力を入れたため隆盛を極めた。※大徳寺本坊は特別の場合を除き一般拝観は不可（ただし、境内は散策可）一般拝観寺院に関しては、各塔頭寺院に問い合 / 市バス「大徳寺前」下車、徒歩5分,0.9,accepted,true,Kyoto Prefecture official tourism facility; filtered to municipality names starting with 京都市. Lodging/restaurant-like records are excluded from primary tourism-place anchors by name terms.
official-kyoto-facility-0000000258,jp-kyoto,교토,JP,今宮神社,今宮神社,,place,tourism_facility,kyoto_tourism_facilities_city_only,0000000258,http://imamiyajinja.org,疫病鎮めの信仰が厚い神社。楼門をくぐり境内へ進むと拝殿が建ち、その奥に本社、摂社疫社、西側には西陣織の業祖神である織姫社や稲荷社などの末社が祀られている。毎年4月（第2日曜日）に行われている「やすらい祭」は、京の三奇祭として有名。※ご利益：健康長寿 良縁開運,관광시설,京都府京都市北区紫野今宮町,35.046012,135.742029,,,無料,今宮神社 / 疫病鎮めの信仰が厚い神社。楼門をくぐり境内へ進むと拝殿が建ち、その奥に本社、摂社疫社、西側には西陣織の業祖神である織姫社や稲荷社などの末社が祀られている。毎年4月（第2日曜日）に行われている「やすらい祭」は、京の三奇祭として有名。※ご利益：健康長寿 良縁開運 / 市バス（46系統）「今宮神社前」下車市バス（12、204、205、206、北8系統）「船岡山」下車、徒歩7分,0.9,accepted,true,Kyoto Prefecture official tourism facility; filtered to municipality names starting with 京都市. Lodging/restaurant-like records are excluded from primary tourism-place anchors by name terms.
official-kyoto-facility-0000003563,jp-kyoto,교토,JP,京都府立堂本印象美術館,京都府立堂本印象美術館,,place,tourism_facility,kyoto_tourism_facilities_city_only,0000003563,https://insho-domoto.com,"世界遺産、金閣寺と龍安寺の間のきぬかけの路にひときわ目立つ建物。多彩な芸術活動で知られる日本画家・堂本印象の作品を展示する他、近現代日本画の特別企画展を開催。収蔵品は日本画、油彩画、工芸など2,300点余におよぶ。印象自身のデザインによる美術館の建物自体も作品の一つ。",관광시설,京都府京都市北区平野上柳町44281,35.035151,135.726063,,,一般 510円高校・大学生 400円小・中学生 200円団体（20名以上）2割引※65歳以上の方（要証明）、障害者手帳をお持ちの方（介護者1名を含む）は無料,"京都府立堂本印象美術館 / 世界遺産、金閣寺と龍安寺の間のきぬかけの路にひときわ目立つ建物。多彩な芸術活動で知られる日本画家・堂本印象の作品を展示する他、近現代日本画の特別企画展を開催。収蔵品は日本画、油彩画、工芸など2,300点余におよぶ。印象自身のデザインによる美術館の建物自体も作品の一つ。 / 市バス（50、51、12、55、15、59系統）、またはJRバス「立命館大学前」下車",0.9,accepted,true,Kyoto Prefecture official tourism facility; filtered to municipality names starting with 京都市. Lodging/restaurant-like records are excluded from primary tourism-place anchors by name terms.
official-kyoto-facility-0000001123,jp-kyoto,교토,JP,光悦茶家,光悦茶家,,place,tourism_facility,kyoto_tourism_facilities_city_only,0000001123,,鷹峯でしか育たない京野菜、辛味大根を薬味としたおそば。からだがほっこり暖かくなる鴨そばなど。春には、街中より少し遅く満開になる紅しだれ桜の下で、お抹茶などをいただける。,관광시설,京都府京都市北区鷹峯光悦町,35.054137,135.729188,,,おそば 650円～980円お抹茶（生菓子付）、ぜんざい 600円,光悦茶家 / 鷹峯でしか育たない京野菜、辛味大根を薬味としたおそば。からだがほっこり暖かくなる鴨そばなど。春には、街中より少し遅く満開になる紅しだれ桜の下で、お抹茶などをいただける。 / 市バス「源光庵前」下車、徒歩3分,0.9,accepted,true,Kyoto Prefecture official tourism facility; filtered to municipality names starting with 京都市. Lodging/restaurant-like records are excluded from primary tourism-place anchors by name terms.
official-kyoto-facility-0000000275,jp-kyoto,교토,JP,わら天神宮,わら天神宮,,place,tourism_facility,kyoto_tourism_facilities_city_only,0000000275,,はじめ北山天神丘に鎮座していた北山の産土神（うぶすなかみ）。足利義満の北山殿造営のとき、ここに遷された。安産や子授けの御神徳で知られ、授けられた安産お守りの中に入ったわらのお守りの節の有無で生まれてくる子供の性別が異なるという珍しい信仰がある。また、摂社六勝（ろくしょう）神社は「六（む）つかしいことに勝つ」とも読めることから、必勝、成功、開運、合格祈願の守護神として崇敬を集める。※ご利益：安産、子授け、縁結び,관광시설,京都府京都市北区衣笠天神森町10,35.036055,135.731627,,,拝観無料,わら天神宮 / はじめ北山天神丘に鎮座していた北山の産土神（うぶすなかみ）。足利義満の北山殿造営のとき、ここに遷された。安産や子授けの御神徳で知られ、授けられた安産お守りの中に入ったわらのお守りの節の有無で生まれてくる子供の性別が異なるという珍しい信仰がある。また、摂社六勝（ろくしょう）神社は「六（む）つかしいことに勝つ」とも読めるこ / 市バス（15、50、55、101、102、204、205系統）「わら天神前」下車阪急京都線「西院」駅から市バス（205系統）で「わら天神前」下車JR山陰線「円町」駅から市バス（205系統）で「わら天神前」下車地下鉄烏丸線「北大路」駅から（101、102、204、205系統）で「わら天神前」下車,0.9,accepted,true,Kyoto Prefecture official tourism facility; filtered to municipality names starting with 京都市. Lodging/restaurant-like records are excluded from primary tourism-place anchors by name terms.
official-kyoto-facility-0000000261,jp-kyoto,교토,JP,常照寺,常照寺,,place,tourism_facility,kyoto_tourism_facilities_city_only,0000000261,,島原の吉野太夫が寄進した吉野門で有名。境内には当時の豪商・灰屋紹益と吉野太夫との比翼塚がある。毎年4月第2日曜日には花供養が行われ、鷹峯三山を背景に繰り広げられる島原の太夫道中、太夫の点前による野点などの行事には大勢の人が訪れる。※ご利益：諸願成就のご祈祷可 特に帯着物供養（帯塚）、芸道精進（吉野太夫にあやかり）、子授け（鬼子母神）、学業向上受験合格（開運勝利）など,관광시설,京都府京都市北区鷹峯北鷹峯町1,35.055505,135.732844,,,中学生以上 400円子供 200円,常照寺 / 島原の吉野太夫が寄進した吉野門で有名。境内には当時の豪商・灰屋紹益と吉野太夫との比翼塚がある。毎年4月第2日曜日には花供養が行われ、鷹峯三山を背景に繰り広げられる島原の太夫道中、太夫の点前による野点などの行事には大勢の人が訪れる。※ご利益：諸願成就のご祈祷可 特に帯着物供養（帯塚）、芸道精進（吉野太夫にあやかり）、子授 / 市バス「鷹峯源光庵前」下車、徒歩2分,0.9,accepted,true,Kyoto Prefecture official tourism facility; filtered to municipality names starting with 京都市. Lodging/restaurant-like records are excluded from primary tourism-place anchors by name terms.
official-kyoto-facility-0000003290,jp-kyoto,교토,JP,京象嵌の館 川人象嵌・川人ハンズ,京象嵌の館 川人象嵌・川人ハンズ,,place,tourism_facility,kyoto_tourism_facilities_city_only,0000003290,http://www.kawahitozougan.com/,象嵌の製作実演、資料の展示、作品販売、体験教室。体験教室（要予約）所要時間／1時間30分定員／4名～6名（一教室）,관광시설,京都府京都市北区等持院南町76,35.026060,135.723899,,,"体験教室 1名3,000円",京象嵌の館 川人象嵌・川人ハンズ / 象嵌の製作実演、資料の展示、作品販売、体験教室。体験教室（要予約）所要時間／1時間30分定員／4名～6名（一教室） / 市バス「等持院南町」下車、徒歩1分,0.9,accepted,true,Kyoto Prefecture official tourism facility; filtered to municipality names starting with 京都市. Lodging/restaurant-like records are excluded from primary tourism-place anchors by name terms.
official-kyoto-facility-0000006757,jp-kyoto,교토,JP,京都の歴史を学ぶ（平安京の遺跡めぐりなど）,京都の歴史を学ぶ（平安京の遺跡めぐりなど）,,place,tourism_facility,kyoto_tourism_facilities_city_only,0000006757,https://www.kyoto-arc.or.jp/museum/,平安京をはじめ市内の遺跡をガイドの案内により巡る「遺跡めぐり」を実施。また、発掘体験も可。,관광시설,京都府京都市上京区今出川通大宮東入ル元伊佐町265-1,35.029953,135.749633,,,,京都の歴史を学ぶ（平安京の遺跡めぐりなど） / 平安京をはじめ市内の遺跡をガイドの案内により巡る「遺跡めぐり」を実施。また、発掘体験も可。,0.9,accepted,true,Kyoto Prefecture official tourism facility; filtered to municipality names starting with 京都市. Lodging/restaurant-like records are excluded from primary tourism-place anchors by name terms.
official-kyoto-facility-0000003622,jp-kyoto,교토,JP,高津古文化会館,高津古文化会館,,place,tourism_facility,kyoto_tourism_facilities_city_only,0000003622,http://www1.odn.ne.jp/kozu-kobunka/,甲冑や刀剣、婚礼調度の大揃え、茶の湯の道具、屏風類などの古美術品を展示。映画の小道具貸し出し業を母体としているユニークな美術館。,관광시설,京都府京都市上京区今出川通天神筋下ル大上之町61,35.026635,135.734499,,,要問合せ,高津古文化会館 / 甲冑や刀剣、婚礼調度の大揃え、茶の湯の道具、屏風類などの古美術品を展示。映画の小道具貸し出し業を母体としているユニークな美術館。 / 市バス「北野天満宮前」下車、徒歩3分,0.9,accepted,true,Kyoto Prefecture official tourism facility; filtered to municipality names starting with 京都市. Lodging/restaurant-like records are excluded from primary tourism-place anchors by name terms.
official-kyoto-facility-0000003732,jp-kyoto,교토,JP,京都こども文化会館（エンゼルハウス）,京都こども文化会館（エンゼルハウス）,,place,tourism_facility,kyoto_tourism_facilities_city_only,0000003732,http://www.eonet.ne.jp/~angel-house/,京都こども文化会館は、文化芸術を鑑賞する場として、また、文化芸術を創造し発表する場として、国際児童年を記念して京都府と京都市の協力により開館した施設。こどもから大人まで、低料金で利用できる公立の施設です。,관광시설,京都府京都市上京区一条通七本松西入ル,35.027004,135.738299,,,演目による,京都こども文化会館（エンゼルハウス） / 京都こども文化会館は、文化芸術を鑑賞する場として、また、文化芸術を創造し発表する場として、国際児童年を記念して京都府と京都市の協力により開館した施設。こどもから大人まで、低料金で利用できる公立の施設です。 / 市バス「北野天満宮前」、または市バス「千本中立売」下車,0.9,accepted,true,Kyoto Prefecture official tourism facility; filtered to municipality names starting with 京都市. Lodging/restaurant-like records are excluded from primary tourism-place anchors by name terms.
official-kyoto-facility-0000000074,jp-kyoto,교토,JP,千本釈迦堂（大報恩寺）,千本釈迦堂（大報恩寺）,,place,tourism_facility,kyoto_tourism_facilities_city_only,0000000074,http://www.daihoonji.com,正式には大報恩寺。数々の災厄をまぬがれ、安貞元年（1227）の創建当時のままの姿で残る京都市街最古の建造物。この本堂造営には切ないエピソードがある。棟梁が柱を短く切り過ぎた際、その妻、おかめが「斗ぐみ（ますぐみ）をほどこせば・・・」と提言し、造営は成功。しかし、おかめは夫の名誉のために自刃。彼女の徳をたたえたおかめ塚が、本堂を見守るように建っている。また、2月節分の日のおかめ節分、12月7日、12月8日の大根炊きは有名。※ご利益：除災招福、厄除け、夫婦和合、中風,관광시설,京都府京都市上京区今出川七本松上ル溝前町,35.031604,135.739812,,,拝観料（堂内と第二霊宝殿） 一般 600円 高校・大学生 500円 小・中学生 400円団体（20名以上）は50円引き,千本釈迦堂（大報恩寺） / 正式には大報恩寺。数々の災厄をまぬがれ、安貞元年（1227）の創建当時のままの姿で残る京都市街最古の建造物。この本堂造営には切ないエピソードがある。棟梁が柱を短く切り過ぎた際、その妻、おかめが「斗ぐみ（ますぐみ）をほどこせば・・・」と提言し、造営は成功。しかし、おかめは夫の名誉のために自刃。彼女の徳をたたえたおかめ塚が / 市バス「上七軒」下車、徒歩5分,0.9,accepted,true,Kyoto Prefecture official tourism facility; filtered to municipality names starting with 京都市. Lodging/restaurant-like records are excluded from primary tourism-place anchors by name terms.
official-kyoto-facility-0000007716,jp-kyoto,교토,JP,弓月京店,弓月京店,,place,tourism_facility,kyoto_tourism_facilities_city_only,0000007716,http://www.yuzuki-net.jp/,江戸時代に建てられた上七軒のお茶屋の面影が残る西陣御召織元のアンテナショップ。着物の誂え、御召地を使った小物を販売している。,관광시설,京都府京都市上京区上七軒701,35.030535,135.737400,,,,弓月京店 / 江戸時代に建てられた上七軒のお茶屋の面影が残る西陣御召織元のアンテナショップ。着物の誂え、御召地を使った小物を販売している。 / 市バス「上七軒」下車、徒歩3分,0.9,accepted,true,Kyoto Prefecture official tourism facility; filtered to municipality names starting with 京都市. Lodging/restaurant-like records are excluded from primary tourism-place anchors by name terms.
official-kyoto-facility-0000003261,jp-kyoto,교토,JP,近為,近為,,place,tourism_facility,kyoto_tourism_facilities_city_only,0000003261,http://www.kintame.co.jp/,明治12年（1879）創業の京漬物の老舗。飲食スペースが設けられており、近為自慢の漬物で「きんため御膳」が味わえる。,관광시설,京都府京都市上京区千本通五辻上ル牡丹鉾町576,35.031269,135.741916,,,"きんため御膳 1,980円（税込）",近為 / 明治12年（1879）創業の京漬物の老舗。飲食スペースが設けられており、近為自慢の漬物で「きんため御膳」が味わえる。 / 市バス「千本今出川」下車,0.9,accepted,true,Kyoto Prefecture official tourism facility; filtered to municipality names starting with 京都市. Lodging/restaurant-like records are excluded from primary tourism-place anchors by name terms.
official-kyoto-facility-0000003731,jp-kyoto,교토,JP,京都府立府民ホール（アルティ）,京都府立府民ホール（アルティ）,,place,tourism_facility,kyoto_tourism_facilities_city_only,0000003731,http://www.alti.org,優れた文化芸術活動の場を提供し、府民の文化の向上に資するため昭和63年（1988）に開館。「アルティ」の愛称で親しまれ、残響可変装置、および電動昇降床機構による多様なステージバリエーションを実現した音楽・演劇・舞踊等に使用できる舞台芸術専用のホール。ホール／標準客席数424席、最大客席数560席,관광시설,京都府京都市上京区烏丸通一条下ル龍前町590-1,35.025444,135.758729,,,"ホール 29,500円～156,000円",京都府立府民ホール（アルティ） / 優れた文化芸術活動の場を提供し、府民の文化の向上に資するため昭和63年（1988）に開館。「アルティ」の愛称で親しまれ、残響可変装置、および電動昇降床機構による多様なステージバリエーションを実現した音楽・演劇・舞踊等に使用できる舞台芸術専用のホール。ホール／標準客席数424席、最大客席数560席 / 市バス「烏丸一条」下車地下鉄烏丸線「今出川」駅下車、6番出口から南へ徒歩5分,0.9,accepted,true,Kyoto Prefecture official tourism facility; filtered to municipality names starting with 京都市. Lodging/restaurant-like records are excluded from primary tourism-place anchors by name terms.
official-kyoto-facility-0000000075,jp-kyoto,교토,JP,釘抜地蔵（石像寺）,釘抜地蔵（石像寺）,,place,tourism_facility,kyoto_tourism_facilities_city_only,0000000075,,釘抜（苦抜き）地蔵で知られる石像寺は、弘仁10年（819）弘法大師によって開創された。本尊の釘抜地蔵尊は、さまざまな苦しみを抜き取ってくれるとか。本堂には心とからだの痛みがこのようにとれましたという御礼の意味の2本の釘と釘抜きが付いた絵馬が数えきれないほど奉納されている。※ご利益：苦悩解消、諸病平癒、諸願成就,관광시설,京都府京都市上京区千本通り上立売上ル花車町503,35.033392,135.742213,,,無料,釘抜地蔵（石像寺） / 釘抜（苦抜き）地蔵で知られる石像寺は、弘仁10年（819）弘法大師によって開創された。本尊の釘抜地蔵尊は、さまざまな苦しみを抜き取ってくれるとか。本堂には心とからだの痛みがこのようにとれましたという御礼の意味の2本の釘と釘抜きが付いた絵馬が数えきれないほど奉納されている。※ご利益：苦悩解消、諸病平癒、諸願成就 / 市バス「千本上立売」下車、徒歩2分,0.9,accepted,true,Kyoto Prefecture official tourism facility; filtered to municipality names starting with 京都市. Lodging/restaurant-like records are excluded from primary tourism-place anchors by name terms.
official-kyoto-facility-0000003730,jp-kyoto,교토,JP,京都府立文化芸術会館,京都府立文化芸術会館,,place,tourism_facility,kyoto_tourism_facilities_city_only,0000003730,http://www.bungei.jp/,文化芸術を愛する人々に発表と交流の場を提供し、京都における文化芸術の創造活動に寄与することを目的に設置された。文化芸術の創造活動のための専門施設。ホール／419席、車椅子席 3席展示室／1階（154平方m有効壁面47.5m）、2階（154平方m有効壁面47.5m）、3階（88平方m有効壁面約35m・和室）会議室／洋室29平方m、73平方m、和室19平方m、88平方m,관광시설,京都府京都市上京区寺町通広小路下ル東桜町1,35.022953,135.768850,,,展示室 入場無料ホール・和室公演は催しによって異なる,京都府立文化芸術会館 / 文化芸術を愛する人々に発表と交流の場を提供し、京都における文化芸術の創造活動に寄与することを目的に設置された。文化芸術の創造活動のための専門施設。ホール／419席、車椅子席 3席展示室／1階（154平方m有効壁面47.5m）、2階（154平方m有効壁面47.5m）、3階（88平方m有効壁面約35m・和室）会議室／洋室2 / 市バス「府立医大病院前」下車,0.9,accepted,true,Kyoto Prefecture official tourism facility; filtered to municipality names starting with 京都市. Lodging/restaurant-like records are excluded from primary tourism-place anchors by name terms.
official-kyoto-facility-0000000056,jp-kyoto,교토,JP,梨木神社,梨木神社,,place,tourism_facility,kyoto_tourism_facilities_city_only,0000000056,http://nashinoki.jp/,京都御苑の東の細長い境内にたたずむ梨木神社は、明治18年（1885）に維新の功臣である三條実万（さねつむ）を祭神として創建、後に子息の実美（さねとみ）が合祀された。萩の名所として知られ、9月中旬～下旬、境内や参道で薄いピンクや白の萩の花が秋の風に揺れている。9月第3、または第4日曜日前後は恒例の萩まつりが行われる。,관광시설,京都府京都市上京区寺町通広小路上ル染殿町,35.025090,135.767338,,,拝観自由,梨木神社 / 京都御苑の東の細長い境内にたたずむ梨木神社は、明治18年（1885）に維新の功臣である三條実万（さねつむ）を祭神として創建、後に子息の実美（さねとみ）が合祀された。萩の名所として知られ、9月中旬～下旬、境内や参道で薄いピンクや白の萩の花が秋の風に揺れている。9月第3、または第4日曜日前後は恒例の萩まつりが行われる。 / 市バス「府立医大病院前」下車、徒歩3分,0.9,accepted,true,Kyoto Prefecture official tourism facility; filtered to municipality names starting with 京都市. Lodging/restaurant-like records are excluded from primary tourism-place anchors by name terms.
official-kyoto-facility-0000000080,jp-kyoto,교토,JP,宝鏡寺（人形の寺）,宝鏡寺（人形の寺）,,place,tourism_facility,kyoto_tourism_facilities_city_only,0000000080,http://www.hokyoji.net/,歴代皇女が住持となる尼門跡寺院のため百々御所の名がある。孝明天皇遺愛の人形のほか、御所より賜った人形などを公開し、人形寺と呼ばれている。春と秋の2回開かれる人形展に合わせて寺内を一般公開。また、10月14日の人形供養祭の日には全国各地からよせられた人形の供養が行われる。,관광시설,京都府京都市上京区寺之内通堀川東入ル百々町547,35.034062,135.752714,,,600円,宝鏡寺（人形の寺） / 歴代皇女が住持となる尼門跡寺院のため百々御所の名がある。孝明天皇遺愛の人形のほか、御所より賜った人形などを公開し、人形寺と呼ばれている。春と秋の2回開かれる人形展に合わせて寺内を一般公開。また、10月14日の人形供養祭の日には全国各地からよせられた人形の供養が行われる。 / 市バス「堀川寺ノ内」下車、徒歩1分,0.9,accepted,true,Kyoto Prefecture official tourism facility; filtered to municipality names starting with 京都市. Lodging/restaurant-like records are excluded from primary tourism-place anchors by name terms.
official-kyoto-facility-0000007317,jp-kyoto,교토,JP,西陣くらしの美術館 冨田屋,西陣くらしの美術館 冨田屋,,place,tourism_facility,kyoto_tourism_facilities_city_only,0000007317,http://www.tondaya.co.jp/,国の登録有形文化財の町家を見学いただき、古くからつちかわれたしきたりの話をお楽しみください。「生きた町家」に触れることができます。また、ご希望に応じて、着物の着付けやお茶席、伝統弁当も体験いただけます。,관광시설,京都府京都市上京区大宮通一条上ル,35.027438,135.748891,,,"〈基本プラン〉「町家の見学」+「しきたりを学ぶ」 2,200円(税込)〈オプション〉着物体験 別途4,400円(税込)お茶席体験 別途3,300円(税込)伝統弁当 別途3,300円(税込)12/29～1/3は正月特別料金(30%増)",西陣くらしの美術館 冨田屋 / 国の登録有形文化財の町家を見学いただき、古くからつちかわれたしきたりの話をお楽しみください。「生きた町家」に触れることができます。また、ご希望に応じて、着物の着付けやお茶席、伝統弁当も体験いただけます。 / 市バス「一条戻橋・晴明神社前」下車市バス「今出川大宮」下車,0.9,accepted,true,Kyoto Prefecture official tourism facility; filtered to municipality names starting with 京都市. Lodging/restaurant-like records are excluded from primary tourism-place anchors by name terms.
official-kyoto-facility-0000000057,jp-kyoto,교토,JP,廬山寺,廬山寺,,place,tourism_facility,kyoto_tourism_facilities_city_only,0000000057,http://www7a.biglobe.ne.jp/~rozanji/,本堂は仙洞御所の一部を移したもので、古くから皇室との関係が深い寺。源氏物語の作者、紫式部の邸宅跡ともいわれ、それにちなんで昭和40年（1965）には源氏の庭がつくられた。しっとりとした苔庭は、雅かな香りを漂わせている。また、6月中旬から9月頃まで桔梗が美しい。,관광시설,京都府京都市上京区寺町通広小路上ル北之辺町397,35.024633,135.768280,,,大人 500円中学生以下 400円,廬山寺 / 本堂は仙洞御所の一部を移したもので、古くから皇室との関係が深い寺。源氏物語の作者、紫式部の邸宅跡ともいわれ、それにちなんで昭和40年（1965）には源氏の庭がつくられた。しっとりとした苔庭は、雅かな香りを漂わせている。また、6月中旬から9月頃まで桔梗が美しい。 / 市バス「府立医大病院前」下車、徒歩約5分,0.9,accepted,true,Kyoto Prefecture official tourism facility; filtered to municipality names starting with 京都市. Lodging/restaurant-like records are excluded from primary tourism-place anchors by name terms.
official-kyoto-facility-0000009089,jp-kyoto,교토,JP,御所西あいぜん 西村兄妹キモノ店,御所西あいぜん 西村兄妹キモノ店,,place,tourism_facility,kyoto_tourism_facilities_city_only,0000009089,http://www.kimono-aizen.co.jp,京都らしい手仕事の技で作られたきもの、帯の制作・小売。コーディネイトの相談や、アフターケア、メンテナンスの相談などお気軽にどうぞ。家族経営のアットホームなお店です。,관광시설,京都府京都市上京区上長者町通室町西入る,35.023734,135.757603,,,,御所西あいぜん 西村兄妹キモノ店 / 京都らしい手仕事の技で作られたきもの、帯の制作・小売。コーディネイトの相談や、アフターケア、メンテナンスの相談などお気軽にどうぞ。家族経営のアットホームなお店です。 / 地下鉄烏丸線「丸太町」駅下車、徒歩8分地下鉄烏丸線「今出川」駅下車、徒歩10分,0.9,accepted,true,Kyoto Prefecture official tourism facility; filtered to municipality names starting with 京都市. Lodging/restaurant-like records are excluded from primary tourism-place anchors by name terms.
official-kyoto-facility-0000003484,jp-kyoto,교토,JP,公益財団法人手織技術振興財団 織成舘,公益財団法人手織技術振興財団 織成舘,,place,tourism_facility,kyoto_tourism_facilities_city_only,0000003484,https://orinasukan.com,西陣を代表するジャカード機を使用した手織・緯錦（ヌキニシキ）の工場が見学できる。また、昭和11年（1936）に西陣織の店舗兼住まいとして建てられた、梁・柱・明かり天窓など西陣の織屋建の面影をそのまま残したミュージアムでは、昭和を代表する国宝級の復原能装束をはじめ、全国の手織物・時代衣裳を展示している。所要時間／展示見学～工房見学等で約1時間。（工場見学は土曜日、日曜日、祝日休み）定員／手織体験 3名～6名（1週間前までに、要予約）,관광시설,京都府京都市上京区浄福寺通上立売上ル大黒町693,35.032855,135.745410,,,"大人 500円 （400円）小・中学・高校生 350円（300円）（ ）内は団体（10名以上）料金手織体験 初心者コース 5,000円（材料費、見学料、お土産付）※カード利用可（ただし、入館料は不可）",公益財団法人手織技術振興財団 織成舘 / 西陣を代表するジャカード機を使用した手織・緯錦（ヌキニシキ）の工場が見学できる。また、昭和11年（1936）に西陣織の店舗兼住まいとして建てられた、梁・柱・明かり天窓など西陣の織屋建の面影をそのまま残したミュージアムでは、昭和を代表する国宝級の復原能装束をはじめ、全国の手織物・時代衣裳を展示している。所要時間／展示見学 / 市バス「千本上立売」下車、徒歩5分市バス「今出川浄福寺」下車、徒歩5分,0.9,accepted,true,Kyoto Prefecture official tourism facility; filtered to municipality names starting with 京都市. Lodging/restaurant-like records are excluded from primary tourism-place anchors by name terms.
official-kyoto-facility-0000007751,jp-kyoto,교토,JP,上七軒くろすけ,上七軒くろすけ,,place,tourism_facility,kyoto_tourism_facilities_city_only,0000007751,http://www.kurochiku.co.jp/kurosuke/,五花街のひとつ、上七軒の真ん中に位置し、元お茶屋さんの建て物をそのまま利用したお店。時には芸妓さん舞妓さんの姿を見かけることもできる。2階には奥の家屋に渡る細い橋があり中庭をのぞむお座敷へとつづく。,관광시설,京都府京都市上京区今出川通七本松西入ル真盛町699,35.030675,135.737294,,,"昼 小梅 3,000円（税別） 梅 4,000円（税別）夜 夕梅 5,000円（税別） 天神 7,000円（税別） くろすけ 10,000円（税別）※夜はサービス料10% ※カード利用可",上七軒くろすけ / 五花街のひとつ、上七軒の真ん中に位置し、元お茶屋さんの建て物をそのまま利用したお店。時には芸妓さん舞妓さんの姿を見かけることもできる。2階には奥の家屋に渡る細い橋があり中庭をのぞむお座敷へとつづく。 / 市バス「上七軒」、または市バス「北野天満宮前」下車、徒歩5分,0.9,accepted,true,Kyoto Prefecture official tourism facility; filtered to municipality names starting with 京都市. Lodging/restaurant-like records are excluded from primary tourism-place anchors by name terms.
official-kyoto-facility-0000000072,jp-kyoto,교토,JP,西陣,西陣,,place,tourism_facility,kyoto_tourism_facilities_city_only,0000000072,,西陣という名称は、応仁の乱（1467～1477）の時、細川勝元率いる東軍に対して、山名宗全率いる西軍がこのあたりに陣を置いたことに由来する。機織りの街として名高い西陣だが、機織り業を営む家は上京区一体にまで広がっている。東西は新町通りから千本通り、南北は一条通りから鞍馬口通りに及ぶ地域の総称である。小路に格子戸の町家が並び、機の音がこだまする京の情緒が味わえるエリア。,관광시설,京都府京都市上京区,,,,,,西陣 / 西陣という名称は、応仁の乱（1467～1477）の時、細川勝元率いる東軍に対して、山名宗全率いる西軍がこのあたりに陣を置いたことに由来する。機織りの街として名高い西陣だが、機織り業を営む家は上京区一体にまで広がっている。東西は新町通りから千本通り、南北は一条通りから鞍馬口通りに及ぶ地域の総称である。小路に格子戸の町家が,0.9,accepted,true,Kyoto Prefecture official tourism facility; filtered to municipality names starting with 京都市. Lodging/restaurant-like records are excluded from primary tourism-place anchors by name terms.
official-kyoto-facility-0000000078,jp-kyoto,교토,JP,上七軒,上七軒,,place,tourism_facility,kyoto_tourism_facilities_city_only,0000000078,http://www.maiko3.com/,今出川七本松の交差点から北野天満宮東門に続く参道が上七軒。この名称は十代将軍 足利義稙の頃に、北野天満宮再建の余材をもって七軒の茶屋を建てたことから起こったという。毎年春（3/20～4/2）には「北野をどり」、秋（11/13～11/18）には「寿会」が上七軒歌舞練場で催される。また、夏（7～9月初旬）には歌舞練場にてビアガーデンを開催。喫茶「茶ろん上七軒」では、お稽古帰りの舞妓さんに出会えることも。,관광시설,京都府京都市上京区今出川通七本松西入真盛町742,35.029960,135.736726,,,"北野をどり お茶席付御観覧券 5,500円 御観覧券（お茶席無） 5,000円寿会（ことぶきかい） 8,000円（予定）※寿会のみ前年度のものを記載しています。",上七軒 / 今出川七本松の交差点から北野天満宮東門に続く参道が上七軒。この名称は十代将軍 足利義稙の頃に、北野天満宮再建の余材をもって七軒の茶屋を建てたことから起こったという。毎年春（3/20～4/2）には「北野をどり」、秋（11/13～11/18）には「寿会」が上七軒歌舞練場で催される。また、夏（7～9月初旬）には歌舞練場にてビ / 市バス「上七軒」、または市バス「北野天満宮前」下車、徒歩5分,0.9,accepted,true,Kyoto Prefecture official tourism facility; filtered to municipality names starting with 京都市. Lodging/restaurant-like records are excluded from primary tourism-place anchors by name terms.
official-kyoto-facility-0000006105,jp-kyoto,교토,JP,染井,染井,,place,tourism_facility,kyoto_tourism_facilities_city_only,0000006105,http://nashinoki.jp/,京都三名水のうち、現存する唯一の井戸。京都御苑の東、梨木（なしのき）神社内の手水舎として使用されている。梨木神社には維新の功臣である三條実萬（さねつむ）とその子息の実美（さねとみ）が祭神として祀られている。初秋には萩の花が美しい。,관광시설,京都府京都市上京区寺町通広小路上ル染殿町,35.025091,135.767338,,,,染井 / 京都三名水のうち、現存する唯一の井戸。京都御苑の東、梨木（なしのき）神社内の手水舎として使用されている。梨木神社には維新の功臣である三條実萬（さねつむ）とその子息の実美（さねとみ）が祭神として祀られている。初秋には萩の花が美しい。 / 市バス「府立医大病院前」下車、徒歩3分,0.9,accepted,true,Kyoto Prefecture official tourism facility; filtered to municipality names starting with 京都市. Lodging/restaurant-like records are excluded from primary tourism-place anchors by name terms.
official-kyoto-facility-0000000081,jp-kyoto,교토,JP,本法寺,本法寺,,place,tourism_facility,kyoto_tourism_facilities_city_only,0000000081,,表千家・裏千家の家元に向かい合う閑静な地に建つ、日蓮宗の本山のひとつ。本阿弥光悦の菩提寺であり、長谷川等伯の縁のお寺。見どころは、書院前にある光悦作の国の指定名称「巴の庭」。桃山時代風の豪放な庭園で、枯瀧石形が据え置かれ滝水の動きを石で表現している。また、等伯筆の大涅槃図（通常は実物大の複製を展示）がある。境内諸堂客殿などが府の指定有形文化財。春は桜の名所ともなっている。毎年3月14日～4月15日の期間「大涅槃図開帳 春季特別寺宝展」にて、等伯筆大涅槃図（重文）ほか、未公開の寺宝を展示。,관광시설,京都府京都市上京区小川通寺之内上る本法寺前町617,35.035020,135.752137,,,"通常拝観料 500円（庭園含む）「大涅槃図開帳 春季特別寺宝展」拝観料 大人 1,000円 中学・高校生 600円",本法寺 / 表千家・裏千家の家元に向かい合う閑静な地に建つ、日蓮宗の本山のひとつ。本阿弥光悦の菩提寺であり、長谷川等伯の縁のお寺。見どころは、書院前にある光悦作の国の指定名称「巴の庭」。桃山時代風の豪放な庭園で、枯瀧石形が据え置かれ滝水の動きを石で表現している。また、等伯筆の大涅槃図（通常は実物大の複製を展示）がある。境内諸堂客殿 / 市バス「天神公園前」、または市バス「堀川寺ノ内」下車、徒歩3分地下鉄烏丸線「鞍馬口」駅下車、徒歩15分,0.9,accepted,true,Kyoto Prefecture official tourism facility; filtered to municipality names starting with 京都市. Lodging/restaurant-like records are excluded from primary tourism-place anchors by name terms.
official-kyoto-facility-0000003621,jp-kyoto,교토,JP,相国寺承天閣美術館,相国寺承天閣美術館,,place,tourism_facility,kyoto_tourism_facilities_city_only,0000003621,http://www.shokoku-ji.jp,本山相国寺や鹿苑寺（金閣寺）、慈照寺（銀閣寺）他塔頭寺院に伝わる寺宝（国宝5点、重要文化財145点ほか）などを収蔵・展示している。,관광시설,京都府京都市上京区今出川通烏丸東入相国寺門前町701,35.033620,135.762612,,,入館料 一般 800円 65才以上・大学生 600円 中学・高校生 300円 小学生 200円（一般の方に限り、20名様以上、100円割引いたします）,相国寺承天閣美術館 / 本山相国寺や鹿苑寺（金閣寺）、慈照寺（銀閣寺）他塔頭寺院に伝わる寺宝（国宝5点、重要文化財145点ほか）などを収蔵・展示している。 / 市バス「同志社前」下車、徒歩6分地下鉄烏丸線「今出川」駅下車、3番出口から徒歩8分,0.9,accepted,true,Kyoto Prefecture official tourism facility; filtered to municipality names starting with 京都市. Lodging/restaurant-like records are excluded from primary tourism-place anchors by name terms.
official-kyoto-facility-0000009488,jp-kyoto,교토,JP,瑞春院,瑞春院,,place,tourism_facility,kyoto_tourism_facilities_city_only,0000009488,,相国寺塔頭。作家水上勉氏が9歳～13歳まで雛僧としてここで修行し、その体験をもとに小説「雁の寺」を著したことで知られている。本堂の御本尊は6代将軍足利義教が寄進した平安時代の木像仏で、雲上来迎の姿は他に例を見ない。表千家の不審庵を模した茶室「久昌庵」（名工・諸冨厚士氏作・寄進）は、室町時代の石組みがそのまま残っている枯山水の雲頂庭、池泉回遊式の心字池がある雲泉庭などがある。また、茶室「久昌庵」の横にある水琴窟の音は、聴く者に安らぎをあたえる。,관광시설,京都府京都市上京区今出川烏丸東入相国寺門前町701,35.032223,135.760229,,,,瑞春院 / 相国寺塔頭。作家水上勉氏が9歳～13歳まで雛僧としてここで修行し、その体験をもとに小説「雁の寺」を著したことで知られている。本堂の御本尊は6代将軍足利義教が寄進した平安時代の木像仏で、雲上来迎の姿は他に例を見ない。表千家の不審庵を模した茶室「久昌庵」（名工・諸冨厚士氏作・寄進）は、室町時代の石組みがそのまま残っている枯 / 地下鉄烏丸線「今出川」駅下車、徒歩3分,0.9,accepted,true,Kyoto Prefecture official tourism facility; filtered to municipality names starting with 京都市. Lodging/restaurant-like records are excluded from primary tourism-place anchors by name terms.
official-kyoto-facility-0000007728,jp-kyoto,교토,JP,あかりデザイン工房,あかりデザイン工房,,place,tourism_facility,kyoto_tourism_facilities_city_only,0000007728,http://www.kyoto-akari.com/,和紙のあかりを専門に製作する工房で自分だけのオリジナル和紙照明を作ることができる。ゆったりとした時間の中で和紙に触れ心癒すあかり作りが楽しめる。完成品は当日持ち帰ることができ、照明作家が丁寧に指導。製作品により各コースあり。体験は必ず事前の予約が必要。所要時間／3時間程度定員／2名～35名（要事前予約）,관광시설,京都府京都市上京区下之町422番地,35.018771,135.736418,,,"スタンダードコース1人 5,000円、6,000円（材料費・税込）ライトコース1人 3，500円（材料費・税込）",あかりデザイン工房 / 和紙のあかりを専門に製作する工房で自分だけのオリジナル和紙照明を作ることができる。ゆったりとした時間の中で和紙に触れ心癒すあかり作りが楽しめる。完成品は当日持ち帰ることができ、照明作家が丁寧に指導。製作品により各コースあり。体験は必ず事前の予約が必要。所要時間／3時間程度定員／2名～35名（要事前予約） / 市バス「丸太町御前通」下車すぐJR嵯峨野線「円町」駅下車、徒歩10分,0.9,accepted,true,Kyoto Prefecture official tourism facility; filtered to municipality names starting with 京都市. Lodging/restaurant-like records are excluded from primary tourism-place anchors by name terms.
official-kyoto-facility-0000003482,jp-kyoto,교토,JP,西陣織会館,西陣織会館,,place,tourism_facility,kyoto_tourism_facilities_city_only,0000003482,http://www.nishijinori.jp/,衣文化の伝統を肌で感じとることができる伝統産業見学施設。きものショーの上演や、十二単・舞妓・芸妓の着付のほか、きもの（小紋）の着付1日外出や、ミニ手機による手織体験などを実施している。,관광시설,京都府京都市上京区西堀川通元誓願寺上る竪門前町414番地,35.028774,135.751678,,,"入館無料きもの体験（十二単・芸妓・舞妓） 16,500円（税込・記念写真1枚付）きもの（小紋）1日外出 4,400円（税込）手織体験 一般 2,200円（税込） 団体 1,980円（税込、15名以上） 学生 1,870円（税込） 団体 1,683円（税込、15名以上） マフラー製作体験（10時～、13時～） 一般（1日5名まで）6,600円（税込）要予約※着付け、手織は前日までに要予約（電話、またはホームページで受付）",西陣織会館 / 衣文化の伝統を肌で感じとることができる伝統産業見学施設。きものショーの上演や、十二単・舞妓・芸妓の着付のほか、きもの（小紋）の着付1日外出や、ミニ手機による手織体験などを実施している。 / 市バス「堀川今出川」下車、徒歩2分地下鉄烏丸線「今出川」駅下車、徒歩12分,0.9,accepted,true,Kyoto Prefecture official tourism facility; filtered to municipality names starting with 京都市. Lodging/restaurant-like records are excluded from primary tourism-place anchors by name terms.
official-kyoto-facility-0000008683,jp-kyoto,교토,JP,囀市,囀市,,place,tourism_facility,kyoto_tourism_facilities_city_only,0000008683,,主に、手作り品や食べ物の出店が多い。雨天決行。,관광시설,京都府京都市上京区上御霊前通烏丸東入ル上御霊竪町495 御霊神社境内,35.036512,135.761617,,,,囀市 / 主に、手作り品や食べ物の出店が多い。雨天決行。 / 地下鉄烏丸線「鞍馬口」駅下車、徒歩3分市バス「出雲路俵町」下車、徒歩5分,0.9,accepted,true,Kyoto Prefecture official tourism facility; filtered to municipality names starting with 京都市. Lodging/restaurant-like records are excluded from primary tourism-place anchors by name terms.
official-kyoto-facility-0000000054,jp-kyoto,교토,JP,京都御所,京都御所,,place,tourism_facility,kyoto_tourism_facilities_city_only,0000000054,http://sankan.kunaicho.go.jp/,"京都市街のほぼ中央にある京都御苑は、東西約700m、南北約1,300mの広大な敷地を誇る。かつては皇族や公家の邸宅が集まっていたが、東京遷都をきっかけに東京へ移動、その後を公園化したもの。玉砂利の広い道、緑の木々や芝生が美しく、それらの豊富な樹木は、街中のオアシス的な存在で、野鳥の宝庫としても知られている。さらには、桜や梅はもちろん、桃の花の名所にもなっている。休日には、散策やスポーツに憩う多くの人々の姿が見られる。その京都御苑内にある京都御所は、明治2年（1869）の東京遷都まで皇居として使われていた。築地塀をめぐらした御所内には、紫宸殿をはじめ、清涼殿や小御所などがあり、王朝時代をほうふつさせる雅かな面影を十分にとどめている。",관광시설,京都府京都市上京区京都御苑,35.025423,135.762126,,,無料※参観は事前申し込み不要の通年公開に変更されました。公開時間については、宮内庁ホームページ（http://sankan.kunaicho.go.jp/）をご確認ください。,"京都御所 / 京都市街のほぼ中央にある京都御苑は、東西約700m、南北約1,300mの広大な敷地を誇る。かつては皇族や公家の邸宅が集まっていたが、東京遷都をきっかけに東京へ移動、その後を公園化したもの。玉砂利の広い道、緑の木々や芝生が美しく、それらの豊富な樹木は、街中のオアシス的な存在で、野鳥の宝庫としても知られている。さらには、桜 / 地下鉄烏丸線「今出川」駅下車、徒歩5分市バス「烏丸今出川」下車、徒歩5分",0.9,accepted,true,Kyoto Prefecture official tourism facility; filtered to municipality names starting with 京都市. Lodging/restaurant-like records are excluded from primary tourism-place anchors by name terms.
official-kyoto-facility-0000000102,jp-kyoto,교토,JP,一条戻り橋,一条戻り橋,,place,tourism_facility,kyoto_tourism_facilities_city_only,0000000102,,一条通の堀川に架かる、長さ6.2mの小さな橋。平安京当時とその位置は変わっていないといわれている。河竹黙阿弥の歌舞伎・渡辺綱と鬼女の話や豊臣秀吉による千利休の木像の磔けなど、さまざまな伝説と歴史を持つ橋。,관광시설,京都府京都市上京区,35.026289,135.751947,,,,一条戻り橋 / 一条通の堀川に架かる、長さ6.2mの小さな橋。平安京当時とその位置は変わっていないといわれている。河竹黙阿弥の歌舞伎・渡辺綱と鬼女の話や豊臣秀吉による千利休の木像の磔けなど、さまざまな伝説と歴史を持つ橋。 / 市バス「一条戻橋・晴明神社前」下車,0.9,accepted,true,Kyoto Prefecture official tourism facility; filtered to municipality names starting with 京都市. Lodging/restaurant-like records are excluded from primary tourism-place anchors by name terms.
official-kyoto-facility-0000009445,jp-kyoto,교토,JP,TAKENOKO 有限会社横山竹材店,TAKENOKO 有限会社横山竹材店,,place,tourism_facility,kyoto_tourism_facilities_city_only,0000009445,http://www.yokotake.co.jp,大正8年（1919）創業の銘竹問屋で、和雑貨を中心に竹製品を販売している。また、MY竹箸製作体験（所要時間／2時間程度）もできる。あらかじめ「箸箱」・「箸袋」がセットになっているので、その場で完成させて持ち帰れる。ほか、茶杓製作体験（1名～30名、所要時間／2時間程度）、竹カゴ製作体験（1名～30名 所要時間／2時間程度）もできる。,관광시설,京都府京都市上京区亀屋町135,35.023392,135.753706,,,"MY竹箸製作体験 4,400円茶杓製作体験（スタンダードコース） 茶杓のみ 3,850円 茶杓+白竹茶杓入れ 5,500円茶杓製作体験（プレミアムコース） 茶杓のみ 5,000円 茶杓+白竹茶杓入れ 6,650円 茶杓+本煤竹茶杓入れ 10,000円竹カゴ製作体験 四海波花カゴ 3,600円 よろずカゴ 4,400円 えびカゴ 4,400円※GOTOトラベル地域共通クーポン利用可",TAKENOKO 有限会社横山竹材店 / 大正8年（1919）創業の銘竹問屋で、和雑貨を中心に竹製品を販売している。また、MY竹箸製作体験（所要時間／2時間程度）もできる。あらかじめ「箸箱」・「箸袋」がセットになっているので、その場で完成させて持ち帰れる。ほか、茶杓製作体験（1名～30名、所要時間／2時間程度）、竹カゴ製作体験（1名～30名 所要時間／2時間程 / 市バス「堀川下長者町」下車、東へ徒歩3分地下鉄烏丸線「丸太町」駅下車、徒歩10分,0.9,accepted,true,Kyoto Prefecture official tourism facility; filtered to municipality names starting with 京都市. Lodging/restaurant-like records are excluded from primary tourism-place anchors by name terms.
official-kyoto-facility-0000003620,jp-kyoto,교토,JP,大将軍八神社方徳殿,大将軍八神社方徳殿,,place,tourism_facility,kyoto_tourism_facilities_city_only,0000003620,http://www.daishogun.or.jp/,大将軍とは、方位を司る星神のこと。この星神の方位を犯すと、厳しい「とがめ」をうけると言い伝えられ、古くから人々の畏敬を受けている。ここ大将軍八神社の鎮座は、平安遷都された延暦13年（794）、桓武天皇による勅願によって勧請され、方除・厄除けの守護神として信仰を集めてきた。方徳殿には陰陽道・道教に関係のある80体の大将軍神像（重文）が祀られている。神像の多くは、大将軍信仰の最盛期でもあった平安中期から鎌倉初期にかけての作。神像のほか、古天文暦道資料（府文）も展示公開されている。,관광시설,京都府京都市上京区一条通御前西入,35.026655,135.733948,,,個人 500円団体 400円学生 300円小学生以下無料,大将軍八神社方徳殿 / 大将軍とは、方位を司る星神のこと。この星神の方位を犯すと、厳しい「とがめ」をうけると言い伝えられ、古くから人々の畏敬を受けている。ここ大将軍八神社の鎮座は、平安遷都された延暦13年（794）、桓武天皇による勅願によって勧請され、方除・厄除けの守護神として信仰を集めてきた。方徳殿には陰陽道・道教に関係のある80体の大将軍 / 市バス「北野天満宮前」、または市バス「北野白梅町」下車、徒歩5分,0.9,accepted,true,Kyoto Prefecture official tourism facility; filtered to municipality names starting with 京都市. Lodging/restaurant-like records are excluded from primary tourism-place anchors by name terms.
official-kyoto-facility-0000008688,jp-kyoto,교토,JP,天神さんの市,天神さんの市,,place,tourism_facility,kyoto_tourism_facilities_city_only,0000008688,http://www.kitanotenmangu.or.jp/,北野天満宮の御祭神菅原道真公の誕生日6月25日、薨去（こうきょ）の2月25日に因み、毎月25日は御縁日とし、終日境内周辺に露店が並び、参拝者の人波が絶えない。特に1月25日の初天神、12月25日の終い天神はいつもにも増して賑わう。,관광시설,京都府京都市上京区馬喰町 北野天満宮境内,35.031135,135.735109,,,,天神さんの市 / 北野天満宮の御祭神菅原道真公の誕生日6月25日、薨去（こうきょ）の2月25日に因み、毎月25日は御縁日とし、終日境内周辺に露店が並び、参拝者の人波が絶えない。特に1月25日の初天神、12月25日の終い天神はいつもにも増して賑わう。 / 市バス「北野天満宮前」下車,0.9,accepted,true,Kyoto Prefecture official tourism facility; filtered to municipality names starting with 京都市. Lodging/restaurant-like records are excluded from primary tourism-place anchors by name terms.
official-kyoto-facility-0000003318,jp-kyoto,교토,JP,山田松香木店,山田松香木店,,place,tourism_facility,kyoto_tourism_facilities_city_only,0000003318,https://www.yamadamatsu.co.jp/,平安朝の頃より育まれた、香道を頂点とする「日本の香り」。その伝統を京都御所近くで受け継ぐ御香処。香木・香原料の輸入・鑑別に優れたノウハウをもつ。伽羅・沈香・白檀など香木の販売や、[1]聞香体験、[2]匂袋作りなどの体験教室も実施している。所要時間／[1]約50分、[2]約50分定員／[1]2名以上、[2]2名以上,관광시설,京都府京都市上京区室町通下立売上ル勘解由小路町164,35.021128,135.757859,,,"体験 [1]1,500円 [2]2,000円",山田松香木店 / 平安朝の頃より育まれた、香道を頂点とする「日本の香り」。その伝統を京都御所近くで受け継ぐ御香処。香木・香原料の輸入・鑑別に優れたノウハウをもつ。伽羅・沈香・白檀など香木の販売や、[1]聞香体験、[2]匂袋作りなどの体験教室も実施している。所要時間／[1]約50分、[2]約50分定員／[1]2名以上、[2]2名以上 / 地下鉄烏丸線「丸太町」駅下車、徒歩7分,0.9,accepted,true,Kyoto Prefecture official tourism facility; filtered to municipality names starting with 京都市. Lodging/restaurant-like records are excluded from primary tourism-place anchors by name terms.
